,name,lon,lat,number,location,mean_area,mean_prc
0,东城 - FREE自由季,116.437104,39.890147999999996,25,东城,54.32,92.94969796700123
1,东城 - Naga上院,116.42813500000001,39.942008,2,东城,456.5,164.20405522001727
2,东城 - solo一期绿景苑,116.438224,39.888702,6,东城,57.666666666666664,75.20854364805272
3,东城 - 万国城,116.43791999999999,39.948074,6,东城,137.0,142.3899145692177
4,东城 - 万国城Moma,116.43791999999999,39.948074,7,东城,136.28571428571428,137.99230250733382
5,东城 - 三秀涵雅居,116.406724,39.957634999999996,21,东城,85.80952380952381,90.44633527392148
6,东城 - 上龙嘉园,116.40696299999999,39.953746,1,东城,150.0,94.0
7,东城 - 上龙西里,116.406054,39.952434000000004,56,东城,72.57142857142857,97.44806255835667
8,东城 - 东中街小区,116.43713600000001,39.938395,19,东城,50.73684210526316,132.80701754385967
9,东城 - 东华门大街,116.404827,39.915257000000004,1,东城,100.0,130.0
10,东城 - 东单四合院,116.41028500000002,39.925557,3,东城,1083.3333333333333,167.40956893348198
11,东城 - 东厂胡同,116.40896299999999,39.922318,27,东城,47.55555555555556,128.31678486997632
12,东城 - 东后河沿,116.42903799999999,39.900221,5,东城,99.0,92.25135964300655
13,东城 - 东四七条,116.42139399999999,39.931523999999996,1,东城,30.0,100.0
14,东城 - 东四九条,116.421654,39.932972,1,东城,70.0,107.14285714285714
15,东城 - 东四五条,116.422922,39.928056,3,东城,40.0,125.0
16,东城 - 东四八条,116.42333400000001,39.932301,3,东城,30.0,95.55555555555554
17,东城 - 东四六条,116.42120700000001,39.930153999999995,3,东城,143.33333333333334,183.33333333333334
18,东城 - 东四北大街,116.41715900000001,39.932493,3,东城,31.666666666666668,113.33333333333333
19,东城 - 东四十四条,116.42141699999999,39.93721,5,东城,116.0,112.3076923076923
20,东城 - 东四十条军区总医院家属院,116.426809,39.931034000000004,2,东城,25.0,112.0
21,东城 - 东四十条小区,116.419661,39.933254,2,东城,55.0,95.45454545454545
22,东城 - 东四十条甲34号院,116.427291,39.933143,12,东城,58.833333333333336,93.12920317230662
23,东城 - 东四四条,116.422292,39.927459000000006,5,东城,93.0,146.87997027127463
24,东城 - 东四块玉北街小区,116.42413400000001,39.88293400000001,6,东城,60.0,96.09523809523809
25,东城 - 东四块玉南街,116.424977,39.877747,17,东城,74.82352941176471,86.78045064179518
26,东城 - 东四西大街,116.41398500000001,39.924268,2,东城,65.0,90.58461538461539
27,东城 - 东土城7号院,116.43108500000001,39.958201,2,东城,48.0,99.14529914529913
28,东城 - 东土城路1号,116.432396,39.95006400000001,8,东城,44.25,111.94907407407408
29,东城 - 东土城路9号院,116.432396,39.95006400000001,18,东城,71.0,86.48130005672795
30,东城 - 东堂子胡同,116.42438100000001,39.914241,10,东城,51.6,102.66433566433568
31,东城 - 东外公馆,116.44263500000001,39.93674,23,东城,104.08695652173913,90.15297575399876
32,东城 - 东总布胡同,116.430097,39.912149,10,东城,45.0,114.7651515151515
33,东城 - 东方豪庭,116.415952,39.909864,15,东城,201.26666666666668,136.17424419328725
34,东城 - 东方豪庭公寓,116.415952,39.909864,14,东城,219.42857142857142,132.570718160682
35,东城 - 东方财富,116.436966,39.893158,35,东城,90.28571428571429,96.61302730666891
36,东城 - 东方银座,116.435432,39.940218,52,东城,125.48076923076923,129.54218450083428
37,东城 - 东棉花胡同,116.40564599999999,39.935649,5,东城,53.6,132.17391304347825
38,东城 - 东湖别墅公寓,116.441578,39.942119,32,东城,395.3125,273.23042333572226
39,东城 - 东环公寓,116.436151,39.935898,2,东城,688.0,181.6860465116279
40,东城 - 东环居苑,116.44571200000001,39.898819,19,东城,58.05263157894737,102.37335763651554
41,东城 - 东皇城根北街,116.406549,39.928875,1,东城,1300.0,223.07692307692307
42,东城 - 东直门内北小街,116.425604,39.945334,17,东城,87.3529411764706,109.11248710010322
43,东城 - 东直门内南小街,116.425595,39.936378999999995,1,东城,40.0,95.0
44,东城 - 东直门内大街,116.42473999999999,39.94105,18,东城,95.22222222222223,44.78470603470602
45,东城 - 东直门北大街,116.433444,39.945901,10,东城,116.1,154.85144312393888
46,东城 - 东直门北小街8号院,116.426272,39.947741,1,东城,130.0,76.92307692307692
47,东城 - 东直门北小街小区,116.425604,39.945334,11,东城,32.27272727272727,111.51515151515152
48,东城 - 东直门南大街,116.43424399999999,39.936161,33,东城,70.84848484848484,92.50461977485638
49,东城 - 东直门外大街,116.43894099999999,39.941208,14,东城,66.85714285714286,117.9154930886066
50,东城 - 东直门外大街30号,116.446106,39.940913,1,东城,55.0,87.27272727272727
51,东城 - 东直门外大街32号,116.435501,39.94104,7,东城,57.857142857142854,104.63394383394383
52,东城 - 东直门外大街40号楼,116.438318,39.940638,8,东城,16.625,192.95833333333334
53,东城 - 东直门外小街10号院,116.44528999999999,39.943826,4,东城,55.0,94.54545454545455
54,东城 - 东罗圈,116.42477099999999,39.917463,3,东城,41.0,165.85365853658536
55,东城 - 东罗圈胡同,116.42477099999999,39.917463,6,东城,55.333333333333336,132.21325011138498
56,东城 - 东花市北里,116.43051499999999,39.897898,8,东城,99.25,90.15151515151514
57,东城 - 东花市北里东区,116.436575,39.898989,20,东城,73.6,86.90281771570282
58,东城 - 东花市北里中区,116.43353300000001,39.898919,90,东城,79.41111111111111,93.24309842320547
59,东城 - 东花市北里西区,116.42941100000002,39.898736,8,东城,63.0,93.35357624831308
60,东城 - 东营房八条,116.43988600000002,39.930756,9,东城,61.666666666666664,100.70370370370371
61,东城 - 中剪子巷,116.411942,39.9336,6,东城,33.333333333333336,122.0
62,东城 - 中海紫御公馆,116.390496,39.870139,321,东城,97.88161993769471,122.25243862408311
63,东城 - 中绦胡同甲2号院,116.39798200000001,39.947857,10,东城,70.0,86.28571428571426
64,东城 - 丽水湾畔,116.44185800000001,39.894757,3,东城,99.0,77.77777777777777
65,东城 - 丽水湾畔家园,116.44185800000001,39.894757,7,东城,105.14285714285714,88.72397443826016
66,东城 - 九道湾南巷,116.420248,39.938736999999996,1,东城,600.0,141.66666666666666
67,东城 - 交东小区,116.411243,39.939997999999996,4,东城,63.0,101.72275641025641
68,东城 - 交林夹道小区,116.42791799999999,39.958182,5,东城,53.2,90.8951048951049
69,东城 - 交道口东大街小区,116.41528600000001,39.940028999999996,3,东城,42.666666666666664,118.46960167714884
70,东城 - 交道口北二条,116.412749,39.942675,6,东城,60.0,106.07738095238096
71,东城 - 交道口北头条,116.41378700000001,39.941963,9,东城,49.0,128.06470177169402
72,东城 - 交道口南大街,116.408571,39.936752,6,东城,42.333333333333336,98.75
73,东城 - 交道口四合院,116.409375,39.93496,1,东城,482.0,248.96265560165975
74,东城 - 京城仁合,116.441971,39.897737,49,东城,73.75510204081633,88.63313651308219
75,东城 - 京城仁合家园,116.441971,39.897737,1,东城,70.0,78.57142857142857
76,东城 - 京宝花园,116.40702900000001,39.953281,6,东城,162.0,86.41975308641975
77,东城 - 什锦花园胡同,116.413701,39.92995300000001,2,东城,62.5,93.11688311688312
78,东城 - 仓南胡同,116.430022,39.927423,5,东城,57.2,108.59016393442623
79,东城 - 仓南胡同14号院,116.429345,39.926758,6,东城,51.166666666666664,88.42424242424242
80,东城 - 仓夹道,116.431389,39.935461,4,东城,95.0,115.78947368421052
81,东城 - 体育馆西路,116.42466100000001,39.884473,2,东城,55.0,90.9090909090909
82,东城 - 体育馆路,116.425422,39.883969,23,东城,55.08695652173913,112.01956474347502
83,东城 - 俊景苑,116.42096699999999,39.923144,6,东城,66.66666666666667,110.9280047437942
84,东城 - 保利蔷薇,116.43540700000001,39.890503,31,东城,68.90322580645162,109.1846562423703
85,东城 - 保利蔷薇苑,116.435905,39.890854,4,东城,70.25,102.2332506203474
86,东城 - 元嘉国际,116.43703500000001,39.936596,2,东城,48.0,145.83333333333334
87,东城 - 光明楼小区,116.437597,39.886266,14,东城,55.0,95.46481744062389
88,东城 - 光明西里,116.435654,39.887846,13,东城,48.76923076923077,101.0989010989011
89,东城 - 八宝坑胡同,116.419779,39.938026,1,东城,185.0,135.13513513513513
90,东城 - 六铺炕小区,116.394548,39.952884999999995,5,东城,56.6,110.38498391444223
91,东城 - 兴化西里,116.41166000000001,39.959876,34,东城,68.38235294117646,103.16076656907104
92,东城 - 兴化路2号院,116.414146,39.962216,1,东城,65.0,89.23076923076923
93,东城 - 兴隆都市馨园,116.414045,39.895317999999996,83,东城,60.89156626506024,117.6139001866506
94,东城 - 冠城名敦道,116.447106,39.891494,31,东城,145.74193548387098,113.64663137321514
95,东城 - 凯德华玺,116.42054499999999,39.923876,4,东城,214.75,133.06562374380275
96,东城 - 分司厅胡同,116.40606799999999,39.94402,8,东城,327.5,205.6798245614035
97,东城 - 前永康一巷,116.418501,39.943599,2,东城,350.0,342.85714285714283
98,东城 - 前永康小区,116.41819,39.943656,15,东城,482.4,286.94162403253307
99,东城 - 前门东大街,116.404452,39.900776,41,东城,61.1219512195122,114.72648409820034
100,东城 - 前门前,116.398251,39.893648,1,东城,88.0,80.9090909090909
101,东城 - 化工大院,116.41649,39.960881,14,东城,45.0,96.81841967556252
102,东城 - 北京INN,116.431656,39.922109999999996,25,东城,74.96,127.807218642975
103,东城 - 北京上舍,116.43620700000001,39.891719,70,东城,98.14285714285714,99.47285354028793
104,东城 - 北官厅胡同,116.427,39.946956,3,东城,40.0,112.77777777777777
105,东城 - 北新仓社区,116.428699,39.940476000000004,6,东城,70.0,107.14285714285712
106,东城 - 北新桥一巷,116.41851499999999,39.943241,1,东城,900.0,155.55555555555554
107,东城 - 北新桥三条,116.419721,39.945298,4,东城,376.5,209.61748633879782
108,东城 - 北新桥二条,116.418022,39.942514,2,东城,30.0,94.85714285714286
109,东城 - 北新桥头条,116.41903700000002,39.941819,3,东城,263.3333333333333,168.2456140350877
110,东城 - 北新胡同,116.41836599999999,39.944691,10,东城,616.9,197.93703148425786
111,东城 - 北月牙胡同,116.39755,39.93196,4,东城,35.0,107.14285714285714
112,东城 - 北河沿大街,116.406304,39.924976,10,东城,52.6,94.90769230769232
113,东城 - 北河沿大街117号,116.406117,39.921186999999996,2,东城,150.0,233.33333333333334
114,东城 - 北锣鼓巷小区,116.40259099999999,39.943876,17,东城,38.411764705882355,110.88235294117646
115,东城 - 北门仓,116.427888,39.934296,12,东城,38.333333333333336,174.79691876750698
116,东城 - 北门仓胡同,116.42912700000001,39.934469,18,东城,30.27777777777778,176.18989380502538
117,东城 - 十字坡东里,116.439957,39.939834999999995,9,东城,66.22222222222223,113.74422962658258
118,东城 - 十字坡西里,116.438131,39.93956,2,东城,75.0,100.0
119,东城 - 华人一品,116.410991,39.93310200000001,1,东城,35.0,91.42857142857143
120,东城 - 华人一品阁,116.410991,39.93310200000001,1,东城,22.0,127.27272727272727
121,东城 - 华府景园,116.406127,39.960767,25,东城,152.16,97.59603753153637
122,东城 - 华普花园,116.43258999999999,39.936187,19,东城,186.78947368421052,100.93577122350763
123,东城 - 华龙美晟,116.405369,39.862854,23,东城,44.73913043478261,105.98923512169218
124,东城 - 南弓匠营小区,116.427194,39.926433,1,东城,20.0,115.0
125,东城 - 南河沿,116.40686000000001,39.910816,6,东城,100.0,135.33333333333334
126,东城 - 南竹杆胡同,116.42898799999999,39.922018,9,东城,64.0,120.15873015873018
127,东城 - 南锣鼓巷,116.40318700000002,39.937282,2,东城,112.5,135.0
128,东城 - 南门仓,116.427604,39.928455,4,东城,52.5,105.0
129,东城 - 双玉中街小区,116.42376100000001,39.880926,4,东城,55.0,81.81818181818181
130,东城 - 台基厂小区,116.415543,39.905297,2,东城,65.0,100.0
131,东城 - 史家胡同,116.42197,39.918448,5,东城,56.0,104.73846153846152
132,东城 - 同福夹道,116.4161,39.91943,13,东城,71.07692307692308,117.5773483482462
133,东城 - 后永康胡同,116.42345700000001,39.944715,1,东城,220.0,181.8181818181818
134,东城 - 后芳嘉园胡同,116.429004,39.920325,2,东城,56.0,112.5
135,东城 - 和平新城,116.426154,39.952018,68,东城,116.48529411764706,99.68035171556087
136,东城 - 和平街八区,116.420617,39.962164,4,东城,55.0,83.63636363636364
137,东城 - 和平街十一区,116.426154,39.952018,57,东城,50.94736842105263,109.95078744160195
138,东城 - 和平街十三区,116.42533799999998,39.961129,25,东城,47.16,101.80854443801813
139,东城 - 和平街十二区,116.42234199999999,39.960159000000004,28,东城,38.75,133.19115117094105
140,东城 - 和平街十五区,116.430815,39.964889,71,东城,37.816901408450704,130.34131783709248
141,东城 - 和平街十区,116.423075,39.963729,4,东城,53.25,102.854427549195
142,东城 - 和平西苑,116.41063999999999,39.964675,6,东城,22.5,119.25925925925928
143,东城 - 和平里一区,116.422702,39.959249,10,东城,58.7,105.55437665782492
144,东城 - 和平里七区,116.423952,39.9598,27,东城,48.55555555555556,114.39314698483625
145,东城 - 和平里三区,116.419945,39.955909999999996,61,东城,48.19672131147541,105.10700730787352
146,东城 - 和平里东街15号院,116.42469799999999,39.951086,2,东城,56.0,125.0
147,东城 - 和平里东街9号院,116.42469299999999,39.953171999999995,22,东城,430.8636363636364,99.30591235654525
148,东城 - 和平里中街3号院,116.42288300000001,39.957917,9,东城,80.88888888888889,109.41919191919192
149,东城 - 和平里二区,116.424479,39.958194,6,东城,53.0,119.90384615384615
150,东城 - 和平里五区,116.419051,39.955144,82,东城,51.829268292682926,121.58016255095002
151,东城 - 和平里六区,116.42441399999998,39.95597100000001,30,东城,90.83333333333333,98.6501111111111
152,东城 - 和平里四区,116.42103200000001,39.957045,4,东城,66.0,106.06060606060606
153,东城 - 和平里砖角楼,116.42963,39.955866,11,东城,30.181818181818183,139.37346437346437
154,东城 - 国子监,116.413261,39.946787,6,东城,42.5,96.66666666666667
155,东城 - 国旺胡同,116.39501499999999,39.945906,1,东城,30.0,100.0
156,东城 - 国瑞城,116.42048500000001,39.898236,548,东城,94.41240875912409,117.95817234727059
157,东城 - 国瑞紫金台,116.419498,39.898495000000004,12,东城,63.083333333333336,158.81690482607794
158,东城 - 国祥胡同,116.39751000000001,39.946743,2,东城,65.0,35.38461538461539
159,东城 - 地兴居轻工业部宿舍,116.39971899999999,39.951538,2,东城,55.0,118.18181818181819
160,东城 - 培新街乙5号院,116.433315,39.890038,26,东城,594.3846153846154,84.96758320052547
161,东城 - 夕照寺西里小区,116.43873,39.891233,1,东城,42.0,130.95238095238096
162,东城 - 外交部街33号院,116.421341,39.913483,8,东城,68.125,120.60406698564593
163,东城 - 外交部街小区,116.426126,39.915237,13,东城,66.84615384615384,100.65262791507135
164,东城 - 大方家胡同,116.42941499999999,39.919669,13,东城,67.6923076923077,93.09736417428725
165,东城 - 大经厂西巷,116.404001,39.941112,1,东城,220.0,250.0
166,东城 - 大羊宜宾胡同,116.42818600000001,39.912319000000004,6,东城,50.666666666666664,105.99642105076886
167,东城 - 大羊宜宾胡同31号院,116.429223,39.913014000000004,2,东城,61.0,109.55086580086581
168,东城 - 大羊宜宾胡同35号院,116.427888,39.913193,5,东城,46.8,110.01904761904761
169,东城 - 大草厂胡同,116.407822,39.92012800000001,3,东城,46.666666666666664,120.22222222222223
170,东城 - 大菊胡同,116.422408,39.940228999999995,5,东城,134.0,89.5
171,东城 - 天利园,116.44163200000001,39.888822,29,东城,93.37931034482759,89.63148751672666
172,东城 - 天坛东里,116.42289099999999,39.878331,12,东城,57.75,85.94793301936159
173,东城 - 天坛东里中区,116.419716,39.876104999999995,7,东城,52.285714285714285,90.9013605442177
174,东城 - 天坛东里南区,116.42015,39.873865,3,东城,50.0,90.0
175,东城 - 天坛北里,116.413113,39.888985,2,东城,68.0,105.97402597402598
176,东城 - 天坛西里东区,116.40263700000001,39.875521,3,东城,57.333333333333336,96.43162393162395
177,东城 - 天天家园,116.405529,39.864371999999996,1,东城,26.0,92.3076923076923
178,东城 - 天娇园,116.43955600000001,39.898112,23,东城,88.73913043478261,100.78019524798601
179,东城 - 宇飞大厦,116.43737,39.940220000000004,5,东城,181.2,97.41269841269842
180,东城 - 安乐林小区,116.408698,39.863057,1,东城,48.0,79.16666666666667
181,东城 - 安外东河沿,116.41215700000001,39.950601,10,东城,65.0,95.07692307692308
182,东城 - 安外东河沿小区,116.41215700000001,39.950601,17,东城,37.64705882352941,138.55593752652578
183,东城 - 安外大街3号院,116.40669399999999,39.961701,6,东城,53.333333333333336,78.88578088578089
184,东城 - 安外大街6号楼,116.40815900000001,39.966586,2,东城,55.0,89.0909090909091
185,东城 - 安外甘水桥社区,116.408918,39.961538,1,东城,65.0,89.23076923076923
186,东城 - 安外花园,116.410696,39.958653999999996,20,东城,61.95,111.04749255912047
187,东城 - 安外西河沿小区,116.405332,39.950842,19,东城,51.68421052631579,93.25504741103771
188,东城 - 安定门东大街小区,116.418653,39.948871999999994,5,东城,50.0,140.0
189,东城 - 安定门东大街甲2号,116.427373,39.948888000000004,8,东城,54.375,136.47058823529412
190,东城 - 安定门内四合院,116.40878500000001,39.938539,1,东城,900.0,261.1111111111111
191,东城 - 安德路47号院,116.402358,39.952855,53,东城,47.301886792452834,110.72019298120186
192,东城 - 安德路乙61号院,116.39433999999999,39.952596,9,东城,76.33333333333333,116.40791476407915
193,东城 - 安德里北街25号院,116.38830800000001,39.95718,1,东城,70.0,78.57142857142857
194,东城 - 安德里北街小区,116.396275,39.956767,7,东城,70.0,78.57142857142857
195,东城 - 安贞苑50号院,116.409035,39.970671,7,东城,66.57142857142857,85.47917599641737
196,东城 - 官书院,116.41065,39.946546999999995,1,东城,125.0,128.0
197,东城 - 官书院胡同,116.41592800000001,39.947272,3,东城,93.33333333333333,121.11111111111113
198,东城 - 定安里,116.41190700000001,39.862805,3,东城,70.0,80.0
199,东城 - 宝华里,116.403869,39.86143,14,东城,20.0,100.0
200,东城 - 宝润苑,116.42717900000001,39.900051,2,东城,211.0,75.82938388625593
201,东城 - 宝珠子胡同,116.42981,39.913121000000004,17,东城,41.94117647058823,116.4992826398852
202,东城 - 宝钞胡同,116.399639,39.944554,15,东城,65.13333333333334,103.56558990188834
203,东城 - 富瑞苑公寓,116.441046,39.888704,2,东城,110.0,80.0
204,东城 - 富莱茵花园小区,116.406627,39.860212,3,东城,25.0,40.0
205,东城 - 富贵园,116.433343,39.896507,49,东城,105.89795918367346,97.67801715340609
206,东城 - 富贵园一区,116.433297,39.896518,23,东城,125.6086956521739,110.03742483939752
207,东城 - 富贵园三区,116.432926,39.89393,54,东城,71.22222222222223,93.916259004148
208,东城 - 富贵园二区,116.431308,39.896328000000004,46,东城,78.06521739130434,94.90624205176907
209,东城 - 富贵园四区,116.43463500000001,39.894554,45,东城,109.95555555555555,127.07612648789117
210,东城 - 察慈小区,116.439872,39.942734,9,东城,55.55555555555556,94.53768453768454
211,东城 - 小取灯胡同,116.407505,39.928876,2,东城,97.0,123.71134020618557
212,东城 - 小经厂胡同,116.405093,39.94237800000001,9,东城,73.44444444444444,107.89881414881414
213,东城 - 小羊宜宾胡同,116.43028100000001,39.912808,23,东城,65.65217391304348,103.51775454503503
214,东城 - 小菊胡同,116.424793,39.938193,7,东城,32.142857142857146,95.78231292517005
215,东城 - 小黄庄一区,116.409601,39.962315999999994,29,东城,73.34482758620689,104.74023399578427
216,东城 - 小黄庄前街,116.408492,39.96385,8,东城,59.875,93.95361990950227
217,东城 - 小黄庄前街3号内,116.415275,39.962308,7,东城,45.42857142857143,129.0258893648724
218,东城 - 小黄庄前街3号院,116.415107,39.964290999999996,15,东城,63.266666666666666,97.23076923076925
219,东城 - 小黄庄小区,116.409898,39.963035,17,东城,71.6470588235294,101.02878886975714
220,东城 - 崇文门东大街,116.425472,39.900663,63,东城,56.79365079365079,104.74983658652418
221,东城 - 崇文门西大街,116.414372,39.900506,9,东城,61.888888888888886,101.34945976455411
222,东城 - 工体北里,116.443445,39.935486,18,东城,78.27777777777777,97.96398046398048
223,东城 - 左安浦园,116.438166,39.873689,6,东城,66.83333333333333,86.12517442874586
224,东城 - 左安溪园,116.438309,39.875438,1,东城,103.0,97.0873786407767
225,东城 - 左安漪园,116.44064499999999,39.873827,1,东城,118.0,83.05084745762711
226,东城 - 巷上嘉园,116.40013300000001,39.951011,21,东城,96.61904761904762,118.44568276388968
227,东城 - 帽儿胡同,116.399529,39.936365,4,东城,50.0,160.0
228,东城 - 帽儿胡同45号院,116.39730700000001,39.936726,1,东城,100.0,92.0
229,东城 - 幸福北里,116.43466799999999,39.888243,7,东城,63.714285714285715,87.816091954023
230,东城 - 幸福家园,116.430484,39.892307,93,东城,99.03225806451613,93.56628023914178
231,东城 - 广渠家园,116.449304,39.890999,12,东城,66.66666666666667,89.46688127987512
232,东城 - 广渠门内大街,116.43134199999999,39.893479,10,东城,73.1,85.2764705882353
233,东城 - 广渠门外南街,116.447477,39.892076,1,东城,24.0,87.5
234,东城 - 府学胡同,116.412802,39.935736999999996,8,东城,60.625,94.42460317460316
235,东城 - 建国门内大街,116.425877,39.908504,1,东城,18.0,166.66666666666666
236,东城 - 当代MOMA,116.43761200000002,39.950573,212,东城,193.85849056603774,174.69750780553778
237,东城 - 当代moma,116.43761200000002,39.950573,24,东城,211.125,170.7039867540224
238,东城 - 当代万国城,116.43791999999999,39.948074,168,东城,155.9345238095238,144.83594485689184
239,东城 - 当代万国城Moma,116.43791999999999,39.948074,50,东城,221.1,138.13377603771687
240,东城 - 忠实里南街小区,116.44516399999999,39.896953,1,东城,70.0,92.85714285714286
241,东城 - 忠实里小区,116.445803,39.897931,1,东城,68.0,69.11764705882354
242,东城 - 忠实里西区,116.44445800000001,39.899218,1,东城,70.0,85.71428571428571
243,东城 - 戏楼胡同,116.418484,39.945401000000004,2,东城,668.5,179.50726129472577
244,东城 - 报房胡同,116.41406,39.92194600000001,1,东城,50.0,94.0
245,东城 - 文丞相胡同,116.410743,39.936815,1,东城,35.0,108.57142857142857
246,东城 - 新世界中心公寓,116.417387,39.898047999999996,2,东城,110.0,225.45454545454547
247,东城 - 新世界太华公寓,116.417569,39.896538,53,东城,191.1320754716981,116.91844936621203
248,东城 - 新世界家园,116.416678,39.89474000000001,77,东城,152.7922077922078,117.04286973727932
249,东城 - 新世界家园二期,116.416926,39.895539,8,东城,163.0,128.83966322973075
250,东城 - 新中西街,116.438468,39.932852000000004,10,东城,45.6,108.18382352941175
251,东城 - 新太仓二巷,116.422546,39.938856,4,东城,55.0,100.0
252,东城 - 新太仓胡同,116.421245,39.939111,5,东城,57.2,99.04761904761904
253,东城 - 新奥洋房,116.409396,39.864101,4,东城,59.25,74.59325396825398
254,东城 - 新怡家园,116.414914,39.898302,101,东城,118.79207920792079,141.7265960763479
255,东城 - 新景家园,116.42431200000001,39.895447999999995,211,东城,66.07582938388626,117.01750152653717
256,东城 - 新景家园东区,116.42469399999999,39.896328000000004,286,东城,73.57342657342657,111.95258807252692
257,东城 - 新景家园西区,116.422315,39.896113,92,东城,82.06521739130434,98.89874044178244
258,东城 - 新源西里东街,116.446793,39.948361,22,东城,57.95454545454545,81.62763400814875
259,东城 - 新源西里中街,116.446793,39.948361,7,东城,404.42857142857144,105.48525051046059
260,东城 - 新裕家园,116.423794,39.892824,118,东城,68.2457627118644,130.95245960376863
261,东城 - 方家胡同,116.41213799999998,39.944188,25,东城,39.8,104.72603174603171
262,东城 - 方砖厂胡同,116.39791699999999,39.93809,2,东城,350.0,200.0
263,东城 - 春秀路小区,116.443554,39.939801,7,东城,57.285714285714285,96.85781494000673
264,东城 - 普渡寺后巷,116.404652,39.914024,1,东城,100.0,130.0
265,东城 - 普渡寺小区,116.404742,39.913472,2,东城,120.0,125.0
266,东城 - 景山东街小区,116.402128,39.925626,3,东城,66.66666666666667,135.55555555555554
267,东城 - 景泰东里,116.414873,39.864504,2,东城,55.0,63.63636363636363
268,东城 - 景泰西里西区,116.40805800000001,39.863234999999996,19,东城,65.6842105263158,84.40407684476118
269,东城 - 望陶园,116.39416499999999,39.864557,7,东城,86.14285714285714,85.34798534798536
270,东城 - 朝内北小街,116.42715,39.926489000000004,4,东城,20.75,107.5
271,东城 - 朝内南小街,116.426722,39.918694,62,东城,75.3225806451613,115.12088973550796
272,东城 - 朝阳门内大街,116.425292,39.92447,14,东城,60.642857142857146,95.87293166603511
273,东城 - 朝阳门内大街79号,116.42998600000001,39.924734,3,东城,75.0,80.0
274,东城 - 朝阳首府,116.430803,39.923853,18,东城,179.5,140.55700204490853
275,东城 - 本司胡同,116.42011299999999,39.919804,3,东城,38.333333333333336,109.8989898989899
276,东城 - 本家润园,116.43679399999999,39.896596,114,东城,105.07894736842105,100.34445610166907
277,东城 - 李村东里,116.414381,39.868097999999996,4,东城,40.0,100.0
278,东城 - 板厂南里,116.442323,39.885051000000004,4,东城,60.0,83.33333333333333
279,东城 - 板厂新里,116.443739,39.886432,5,东城,42.0,111.9047619047619
280,东城 - 板桥胡同,116.41858300000001,39.938983,6,东城,42.833333333333336,125.09562562194141
281,东城 - 林达大厦,116.432658,39.95633400000001,3,东城,260.0,100.0
282,东城 - 柏林寺小区,116.424272,39.951729,26,东城,59.84615384615385,100.79954528230391
283,东城 - 民主北街小区,116.402299,39.867137,1,东城,66.0,66.66666666666667
284,东城 - 民安小区,116.430008,39.942799,63,东城,79.2063492063492,104.94285482700803
285,东城 - 民旺园,116.42776599999999,39.951474,34,东城,47.3235294117647,127.40285413718391
286,东城 - 水上华城,116.44296499999999,39.888426,110,东城,126.4,100.85330577700107
287,东城 - 永内东街东里,116.411872,39.873962,5,东城,40.4,98.0
288,东城 - 永内东街西里,116.40366599999999,39.873434,1,东城,50.0,88.0
289,东城 - 永定门东街,116.41123999999999,39.8731,6,东城,41.666666666666664,99.37421777221527
290,东城 - 永定门内西街北里,116.399123,39.876629,15,东城,65.0,83.62425672023195
291,东城 - 永康胡同,116.408542,39.946903000000006,9,东城,70.88888888888889,103.35200746965454
292,东城 - 永铁苑,116.393093,39.868904,1,东城,76.0,85.52631578947368
293,东城 - 汪芝麻胡同,116.413478,39.93222,1,东城,180.0,250.0
294,东城 - 沙滩北街小区,116.40381000000001,39.926697999999995,5,东城,50.0,74.8
295,东城 - 沙滩南巷小区,116.405125,39.923047,1,东城,70.0,107.14285714285714
296,东城 - 沙滩后街小区,116.402128,39.925626,9,东城,50.888888888888886,105.64102564102565
297,东城 - 法华南里,116.42708,39.886101000000004,3,东城,127.0,75.06909894969596
298,东城 - 法华寺南里,116.42708,39.886101000000004,15,东城,101.26666666666667,80.863470453896
299,东城 - 法华寺小区,116.422513,39.886761,6,东城,183.83333333333334,73.16081165638687
300,东城 - 海晟名苑,116.442283,39.938045,131,东城,137.12213740458014,144.44449214327005
301,东城 - 海晟国际公寓,116.441882,39.939752,7,东城,68.85714285714286,138.0017006802721
302,东城 - 海运仓,116.427922,39.935213,62,东城,68.66129032258064,101.93617974216862
303,东城 - 港湾国际,116.44196200000002,39.939129,5,东城,50.0,110.0
304,东城 - 演乐胡同,116.423271,39.921229,5,东城,64.0,108.17948717948718
305,东城 - 潘家坡,116.438893,39.929216,7,东城,45.285714285714285,115.02768549280177
306,东城 - 潘家坡胡同4号院,116.43784699999999,39.929237,8,东城,66.625,104.96703853955374
307,东城 - 火桥北里,116.43345900000001,39.881996,1,东城,50.0,110.0
308,东城 - 灯市口小区,116.415999,39.918359,31,东城,50.67741935483871,127.79948759840354
309,东城 - 灯草胡同,116.41986399999999,39.921278,2,东城,58.0,91.37931034482759
310,东城 - 灵光胡同,116.4067,39.947521,1,东城,30.0,100.0
311,东城 - 炮局头条,116.421844,39.947057,1,东城,85.0,88.23529411764706
312,东城 - 炮局胡同,116.42259399999999,39.94597,2,东城,75.0,132.0
313,东城 - 煤渣胡同,116.41608400000001,39.914165999999994,3,东城,65.0,102.22222222222223
314,东城 - 玉石胡同,116.41324399999999,39.922437,1,东城,50.0,100.0
315,东城 - 王家园胡同,116.43871499999999,39.930995,7,东城,62.714285714285715,96.38361638361638
316,东城 - 王府井大街,116.411121,39.916179,1,东城,50.0,110.0
317,东城 - 珠市口东大街四合院,116.409824,39.893421000000004,2,东城,25.0,104.0
318,东城 - 瑞士公寓,116.43713899999999,39.932839,46,东城,114.47826086956522,163.51214317158426
319,东城 - 甘雨胡同,116.414429,39.916995,2,东城,58.0,127.58620689655173
320,东城 - 甘雨胡同33号院,116.41446499999999,39.917161,2,东城,58.0,127.58620689655173
321,东城 - 白桥大街24号楼,116.43968000000001,39.895516,2,东城,60.0,100.0
322,东城 - 白桥苑,116.439802,39.898899,3,东城,180.0,111.11111111111113
323,东城 - 石雀胡同,116.418888,39.940245000000004,1,东城,40.0,112.5
324,东城 - 砖角楼南里,116.429397,39.951211,33,东城,42.09090909090909,117.03349880981459
325,东城 - 礼士胡同,116.42216499999999,39.921991,2,东城,47.5,108.45238095238095
326,东城 - 禄米仓胡同,116.429822,39.9171,17,东城,67.11764705882354,108.2789181964218
327,东城 - 禾风相府,116.42096699999999,39.923144,39,东城,110.97435897435898,164.43695981394265
328,东城 - 竹杆胡同,116.42757399999999,39.922967,6,东城,62.166666666666664,101.4367816091954
329,东城 - 管村26号院,116.39548,39.861831,7,东城,69.0,69.56521739130436
330,东城 - 箭厂胡同,116.411673,39.946432,3,东城,53.333333333333336,126.38888888888887
331,东城 - 细管胡同,116.413947,39.937059999999995,1,东城,25.0,108.0
332,东城 - 绿景苑,116.438224,39.888702,77,东城,49.96103896103896,100.54292444810697
333,东城 - 绿景馨园,116.441277,39.890418,7,东城,97.28571428571429,83.48296274665152
334,东城 - 美惠大厦,116.43746200000001,39.930309,4,东城,152.0,113.15789473684211
335,东城 - 美术馆东街,116.41078,39.9256,13,东城,57.69230769230769,95.9054781696291
336,东城 - 美术馆后街,116.408925,39.93065,12,东城,59.916666666666664,97.9896440940683
337,东城 - 胡家园小区,116.445696,39.945281,24,东城,48.75,128.85416666666666
338,东城 - 自由季,116.437104,39.890147999999996,4,东城,74.75,82.79698242933537
339,东城 - 船板胡同,116.42035700000001,39.903568,8,东城,25.0,120.0
340,东城 - 花市枣苑,116.42941599999999,39.896392,143,东城,124.16083916083916,102.72608689468329
341,东城 - 花梗胡同1号院,116.41289499999999,39.938906,1,东城,55.0,109.0909090909091
342,东城 - 芳嘉园,116.42740900000001,39.920326,2,东城,95.0,100.0
343,东城 - 苏州胡同,116.419706,39.905484,11,东城,54.72727272727273,99.35252235326863
344,东城 - 草园胡同,116.423229,39.942537,4,东城,44.0,113.63636363636364
345,东城 - 菊儿胡同,116.407147,39.939175,2,东城,280.0,132.5
346,东城 - 营房西街,116.424732,39.88500300000001,1,东城,45.0,102.22222222222223
347,东城 - 西吉祥胡同,116.399098,39.932798999999996,3,东城,30.0,116.66666666666667
348,东城 - 西四块玉胡同,116.42185500000001,39.87977100000001,1,东城,65.0,84.61538461538461
349,东城 - 西堂子胡同,116.414612,39.916232,2,东城,67.5,116.66666666666667
350,东城 - 西总布胡同,116.42206599999999,39.912101,5,东城,55.2,97.82051282051282
351,东城 - 西水井胡同,116.430725,39.922557,38,东城,65.65789473684211,101.91171653009228
352,东城 - 西营房小区,116.42505,39.885925,21,东城,82.71428571428571,102.94856212450921
353,东城 - 西营房胡同9号院,116.403547,39.952214,4,东城,93.5,119.6078431372549
354,东城 - 角湾小区,116.44029599999999,39.896188,4,东城,72.0,73.61111111111111
355,东城 - 豆瓣小区,116.431505,39.928433,12,东城,59.083333333333336,109.66880341880342
356,东城 - 豆瓣胡同,116.432043,39.927003000000006,10,东城,57.7,126.41262493609968
357,东城 - 豪威嘉园,116.40013300000001,39.951011,3,东城,157.0,114.64968152866243
358,东城 - 豪威家园,116.41788999999999,39.964890000000004,2,东城,157.0,114.64968152866243
359,东城 - 贡院9号,116.430228,39.910614,41,东城,205.8048780487805,120.11193732107404
360,东城 - 贡院西街小区,116.43033,39.90954,8,东城,57.0,85.1500857632933
361,东城 - 赵堂子胡同,116.42901,39.914246999999996,8,东城,61.25,109.61538461538461
362,东城 - 车辇店胡同,116.40421200000002,39.94533300000001,1,东城,100.0,82.0
363,东城 - 辛寺胡同,116.419628,39.935802,2,东城,25.0,104.0
364,东城 - 远洋德邑,116.446354,39.895371000000004,29,东城,108.10344827586206,86.42183721053517
365,东城 - 郎家胡同,116.40131799999999,39.946795,3,东城,61.0,131.14754098360655
366,东城 - 都会经典大厦,116.435432,39.940218,11,东城,81.63636363636364,84.02325881064365
367,东城 - 都市馨园,116.414045,39.895317999999996,66,东城,69.46969696969697,115.404041214181
368,东城 - 金世纪嘉园,116.44646999999999,39.899497,2,东城,65.0,89.23076923076923
369,东城 - 金成建国5号,116.433869,39.914035,19,东城,184.94736842105263,118.2650448247466
370,东城 - 金桥国际公寓,116.44198,39.896102,79,东城,100.0,104.86361555070953
371,东城 - 金鱼池中区,116.40880800000001,39.889647,4,东城,61.5,112.33660130718954
372,东城 - 金鱼池中街一号院,116.407027,39.891589,2,东城,51.0,127.45098039215686
373,东城 - 金鱼池小区,116.40880800000001,39.889647,16,东城,79.0625,104.43753448349037
374,东城 - 金鱼池西区,116.40666599999999,39.889493,12,东城,120.25,58.87838667113788
375,东城 - 钟楼四合院,116.39327,39.944165999999996,8,东城,456.0,285.08771929824564
376,东城 - 钱粮胡同,116.413867,39.927855,5,东城,30.0,116.66666666666667
377,东城 - 银闸小区,116.404315,39.921802,2,东城,248.0,116.93548387096774
378,东城 - 锡拉胡同,116.408906,39.916325,6,东城,51.0,99.57070707070709
379,东城 - 锡拉胡同21号院,116.40749699999999,39.916607,1,东城,70.0,99.98571428571428
380,东城 - 锡拉胡同23号院,116.407397,39.916474,2,东城,60.0,90.06993006993007
381,东城 - 锦鸿阁,116.430907,39.961779,58,东城,93.44827586206897,103.38967363919114
382,东城 - 长青园,116.427272,39.876645,19,东城,67.89473684210526,82.09637822467461
383,东城 - 阳光都市,116.44071100000001,39.935656,84,东城,121.29761904761905,123.23787380205138
384,东城 - 阳春胡同,116.40713999999998,39.932866,2,东城,65.0,104.375
385,东城 - 雍和家园,116.42015500000001,39.950516,22,东城,141.0,130.85877210968226
386,东城 - 霞公府,116.408105,39.909966,21,东城,497.3333333333333,241.28707990917397
387,东城 - 青年沟23号院,116.41663700000001,39.962856,3,东城,55.0,105.45454545454545
388,东城 - 青年湖东里,116.406559,39.956065,30,东城,77.83333333333333,100.70680900281545
389,东城 - 青年湖北街,116.40546599999999,39.9599,2,东城,81.0,101.23456790123457
390,东城 - 青年湖北里,116.40576200000001,39.957817,6,东城,92.16666666666667,96.74427571252967
391,东城 - 青年湖西里,116.398583,39.954445,15,东城,82.33333333333333,112.0
392,东城 - 青炭局胡同,116.415673,39.944938,3,东城,61.666666666666664,80.95238095238095
393,东城 - 韶九胡同,116.40823300000001,39.916936,1,东城,65.0,100.0
394,东城 - 领行国际,116.441681,39.893102,12,东城,85.91666666666667,102.12148962148962
395,东城 - 领行国际中心,116.441681,39.893102,1,东城,67.0,73.13432835820896
396,东城 - 香河园,116.438988,39.94693,3,东城,60.0,116.66666666666667
397,东城 - 香河园北里,116.43724499999999,39.952067,32,东城,58.34375,113.55456992782209
398,东城 - 香饵胡同,116.412494,39.939283,8,东城,69.75,118.16750677506775
399,东城 - 骑河楼大街小区,116.40506,39.919681,2,东城,50.0,96.0
400,东城 - 魏家胡同,116.414323,39.931496,3,东城,50.0,92.0
401,东城 - 鸿安国际大厦,116.424471,39.923844,5,东城,255.0,90.34369885433715
402,东城 - 黄寺大街2号院,116.40375700000001,39.958385,4,东城,52.5,106.94444444444446
403,东城 - 鼎盛园,116.40935800000001,39.864638,3,东城,84.0,75.0
404,东城 - 鼓楼东大街小区,116.40285,39.940942,9,东城,36.666666666666664,105.27777777777777
405,东城 - 鼓楼辛安里胡同,116.39667,39.938943,1,东城,280.0,464.2857142857143
406,东城 - 龙潭北里,116.43718100000001,39.882061,3,东城,60.0,83.33333333333333
407,东城 - 龙潭北里小区,116.43703000000001,39.88162,5,东城,56.2,94.7015421066327
408,东城 - 龙潭西里,116.42708300000001,39.879753,15,东城,53.86666666666667,86.96335792532976
409,东城 - 龙腾阁,116.437478,39.88292,1,东城,45.0,93.33333333333333
410,丰台 - 10AM新坐标,116.386495,39.853817,51,丰台,48.529411764705884,100.83427887154814
411,丰台 - 3G木兰公寓,116.433869,39.847763,1,丰台,45.0,72.22222222222223
412,丰台 - 7克拉,116.385346,39.839408,42,丰台,46.357142857142854,101.16064010506534
413,丰台 - GOGO新世代,116.423069,39.86657,89,丰台,46.662921348314605,106.8797499210392
414,丰台 - cuv国际公寓,116.332613,39.850245,2,丰台,52.0,78.84615384615384
415,丰台 - 七克拉公寓,116.386025,39.83983900000001,9,丰台,34.666666666666664,114.7041934775633
416,丰台 - 七里庄路,116.289749,39.859028,2,丰台,67.5,63.9010989010989
417,丰台 - 万年花城一期,116.321598,39.843846,112,丰台,80.70535714285714,74.76318274941765
418,丰台 - 万年花城三期,116.322902,39.840632,21,丰台,102.61904761904762,68.34954031750944
419,丰台 - 万年花城二期,116.318657,39.846298,64,丰台,95.640625,73.26782665602606
420,丰台 - 万年花城五期,116.312421,39.84375,13,丰台,91.61538461538461,61.40870873464921
421,丰台 - 万年花城四期,116.315288,39.846187,51,丰台,99.96078431372548,80.65552087653765
422,丰台 - 万年花城回迁房,116.324219,39.841752,6,丰台,74.0,70.35873440285205
423,丰台 - 万年花城尚品西区,116.320328,39.843884,2,丰台,85.0,68.23529411764706
424,丰台 - 万恒家园,116.24943999999999,39.865,4,丰台,75.0,53.333333333333336
425,丰台 - 万柳园小区,116.335311,39.850588,8,丰台,68.25,88.14550264550265
426,丰台 - 万泉寺东路9号院,116.342578,39.865001,2,丰台,88.0,56.81818181818182
427,丰台 - 万泉寺北路10号院,116.342603,39.865766,6,丰台,68.83333333333333,77.67576509511993
428,丰台 - 万泉寺南里,116.34078999999998,39.859946,7,丰台,82.85714285714286,54.40191387559809
429,丰台 - 万泉寺小区,116.342008,39.866482,1,丰台,140.0,48.57142857142857
430,丰台 - 万润风景,116.339211,39.857175,6,丰台,82.5,60.11533202544438
431,丰台 - 万源东里,116.427647,39.800674,1,丰台,70.0,57.142857142857146
432,丰台 - 万源南里,116.42577299999999,39.797387,2,丰台,87.0,48.890063424947144
433,丰台 - 万科中粮假日风景,116.250003,39.867065000000004,2,丰台,103.0,76.41998341625208
434,丰台 - 万科紫台,116.2656,39.882275,8,丰台,170.0,88.23529411764706
435,丰台 - 万科紫苑,116.24497,39.865747,8,丰台,212.5,55.10416666666667
436,丰台 - 万科红,116.42990800000001,39.846309999999995,3,丰台,48.666666666666664,61.168091168091166
437,丰台 - 万科蓝,116.297706,39.814974,23,丰台,67.17391304347827,90.28930195096628
438,丰台 - 万芳园一区,116.318657,39.846298,14,丰台,84.64285714285714,75.05305312170744
439,丰台 - 万芳园二区,116.315288,39.846187,5,丰台,103.8,70.60103766592547
440,丰台 - 三星庄园,116.38386899999999,39.834909,4,丰台,111.25,58.19444444444444
441,丰台 - 三环新城,116.305931,39.851339,146,丰台,90.78082191780823,69.61624318732859
442,丰台 - 三路居99号院,116.333665,39.873641,6,丰台,100.0,68.14814814814815
443,丰台 - 上海建筑,116.387638,39.836214,11,丰台,98.0,64.19294990723564
444,丰台 - 世华水岸,116.41820600000001,39.836043,17,丰台,155.64705882352942,65.01937124774496
445,丰台 - 世嘉丽晶,116.398758,39.817964,5,丰台,50.0,64.0
446,丰台 - 世纪星,116.435425,39.857673,2,丰台,51.0,90.46421663442939
447,丰台 - 世纪星家园,116.435425,39.857673,7,丰台,84.85714285714286,71.50237839496701
448,丰台 - 世纪金色嘉园,116.37210900000001,39.869254999999995,12,丰台,71.83333333333333,94.95562340684853
449,丰台 - 东丽温泉家园,116.38487099999999,39.854485,15,丰台,20.333333333333332,88.88311688311687
450,丰台 - 东亚三环中心,116.37176699999999,39.837021,4,丰台,43.25,87.73057095178497
451,丰台 - 东大街30号院,116.294472,39.856419,3,丰台,83.33333333333333,57.77777777777778
452,丰台 - 东大街35号院,116.29335400000001,39.855794,8,丰台,89.25,67.64178261819772
453,丰台 - 东大街6号院,116.298382,39.862883000000004,26,丰台,83.53846153846153,64.71516420507322
454,丰台 - 东大街东里,116.295647,39.865352,19,丰台,68.6842105263158,66.1385807175281
455,丰台 - 东大街小区,116.294821,39.856474,5,丰台,56.0,67.51298701298701
456,丰台 - 东大街西里,116.29225,39.861644,25,丰台,63.4,71.59859806859806
457,丰台 - 东安街头条,116.28008999999999,39.849551,1,丰台,100.0,52.0
458,丰台 - 东安街头条15号院,116.27820700000001,39.85046,1,丰台,80.0,62.5
459,丰台 - 东木樨园,116.404251,39.85729600000001,13,丰台,58.07692307692308,71.99508426084445
460,丰台 - 东滨河路小区,116.373043,39.869701,4,丰台,24.0,94.64285714285714
461,丰台 - 东营里,116.29563700000001,39.855738,9,丰台,73.33333333333333,66.51282051282051
462,丰台 - 东营里1号院,116.29991499999998,39.855852,1,丰台,70.0,61.42857142857143
463,丰台 - 东营里2号院,116.29980800000001,39.855269,2,丰台,55.0,63.63636363636363
464,丰台 - 东营里3号院,116.29838400000001,39.855916,2,丰台,70.0,58.57142857142857
465,丰台 - 东营里5号院,116.29611799999999,39.855849,19,丰台,75.42105263157895,59.33283091177829
466,丰台 - 东铁营横一条,116.43120400000001,39.856895,7,丰台,55.142857142857146,86.51098901098901
467,丰台 - 东高地社区,116.42081,39.807325,2,丰台,50.0,68.0
468,丰台 - 中体奥林匹克花园,116.19220700000001,39.835617,1,丰台,252.0,51.58730158730159
469,丰台 - 中体首站,116.18566499999999,39.833314,3,丰台,62.0,48.38709677419356
470,丰台 - 中国铁建青秀城,116.34062,39.835997,1,丰台,98.0,48.97959183673469
471,丰台 - 中堂,116.278595,39.8808,3,丰台,126.66666666666667,67.72222222222221
472,丰台 - 中堂,116.275998,39.882627,3,丰台,126.66666666666667,67.72222222222221
473,丰台 - 中堂紫熙台公寓,116.27733300000001,39.881538,5,丰台,201.0,100.64719638875292
474,丰台 - 中奥广场首站,116.18566499999999,39.833314,1,丰台,98.0,40.816326530612244
475,丰台 - 中景未山赋,116.296466,39.884102,2,丰台,144.0,71.9481340923466
476,丰台 - 中海九号公馆,116.29598999999999,39.817889,52,丰台,207.1346153846154,136.51076425811524
477,丰台 - 中海九号公馆一区,116.291269,39.81616500000001,1,丰台,48.0,79.16666666666667
478,丰台 - 中海城二期,116.4474,39.84604,12,丰台,84.25,87.87885255394629
479,丰台 - 中海城圣朝菲,116.45347,39.838961,41,丰台,583.8536585365854,71.82187204724282
480,丰台 - 中海城紫鑫阁,116.44618600000001,39.846771999999994,46,丰台,54.80434782608695,98.61101907943511
481,丰台 - 中海城风情苑,116.448481,39.843782,29,丰台,101.34482758620689,77.50025052557389
482,丰台 - 中海城香克林,116.44901000000002,39.838509,3,丰台,113.66666666666667,97.0800744232344
483,丰台 - 中海御鑫阁,116.299306,39.818222999999996,96,丰台,61.458333333333336,100.8435853788746
484,丰台 - 中海苏黎世家,116.28282800000001,39.818385,48,丰台,81.3125,110.92757283295963
485,丰台 - 丰仪家园,116.227347,39.874023,2,丰台,24.0,98.0
486,丰台 - 丰体时代家园,116.27008799999999,39.866729,1,丰台,130.0,53.84615384615385
487,丰台 - 丰体时代花园,116.27008799999999,39.866729,35,丰台,94.45714285714286,58.087537704262395
488,丰台 - 丰体时代花园,116.27028700000001,39.868046,35,丰台,94.45714285714286,58.087537704262395
489,丰台 - 丰开苑,116.36841100000001,39.852913,1,丰台,66.0,78.78787878787878
490,丰台 - 丰泽居,116.29086299999999,39.835305,6,丰台,64.66666666666667,63.10434556336195
491,丰台 - 丰益城市花园,116.310767,39.859206,15,丰台,87.73333333333333,58.351495726495735
492,丰台 - 丰益花园,116.31284199999999,39.861019,68,丰台,91.8970588235294,61.89196794215671
493,丰台 - 丰管路56号院,116.29773,39.85694,8,丰台,101.0,61.24728260869565
494,丰台 - 丰管路甲52号院,116.30099299999999,39.857223,13,丰台,108.46153846153847,58.441343983940335
495,丰台 - 丰西北里,116.25263899999999,39.838002,2,丰台,57.5,59.04761904761905
496,丰台 - 丽泽景园,116.306597,39.864549,172,丰台,83.55813953488372,67.0334614755458
497,丰台 - 丽泽雅园,116.322846,39.87073,29,丰台,89.72413793103448,74.03260017035109
498,丰台 - 久敬佳园,116.40808600000001,39.819703000000004,1,丰台,98.0,56.12244897959184
499,丰台 - 云岗北区,116.16563700000002,39.81498,13,丰台,74.61538461538461,43.1695548041702
500,丰台 - 云岗南区,116.157379,39.808167,11,丰台,68.36363636363636,41.560648133228774
501,丰台 - 云岗田城,116.14666799999999,39.821873,2,丰台,72.5,41.42857142857143
502,丰台 - 云岗西路10号院,116.15559499999999,39.810143,1,丰台,40.0,50.0
503,丰台 - 云岗西路小区,116.15408899999998,39.810275,1,丰台,60.0,43.333333333333336
504,丰台 - 五爱屯西街,116.37745,39.801192,1,丰台,98.0,57.142857142857146
505,丰台 - 五里店南里,116.25859299999999,39.854729999999996,3,丰台,15.0,100.0
506,丰台 - 京品,116.39345700000001,39.850852,1,丰台,85.0,82.3529411764706
507,丰台 - 京投快线阳光花园,116.38261399999999,39.844826,7,丰台,74.14285714285714,81.16952256214127
508,丰台 - 京投银泰万科西华府,116.304455,39.812862,28,丰台,94.39285714285714,80.59563010578253
509,丰台 - 京铁家园,116.277961,39.894328,8,丰台,82.375,73.94822344935298
510,丰台 - 亿城天筑,116.310996,39.820806,25,丰台,122.76,66.30522875816996
511,丰台 - 亿朋苑,116.33598799999999,39.843595,25,丰台,86.36,77.21597430922058
512,丰台 - 优筑,116.317889,39.852447999999995,26,丰台,20.692307692307693,136.7179487179487
513,丰台 - 优筑国际公寓,116.317889,39.852447999999995,1,丰台,144.0,56.94444444444444
514,丰台 - 保利欣苑,116.28378700000002,39.873061,5,丰台,110.6,74.06041986687148
515,丰台 - 保利百合花园,116.30446699999999,39.876841999999996,68,丰台,99.70588235294117,74.46712305279668
516,丰台 - 保温段小区,116.27923700000001,39.833753,1,丰台,62.0,56.45161290322581
517,丰台 - 兆丰园,116.24918400000001,39.89093,16,丰台,96.625,60.400336908690875
518,丰台 - 兆丰园三区,116.24892,39.891005,1,丰台,60.0,63.333333333333336
519,丰台 - 兆丰园南区,116.249752,39.888841,3,丰台,100.0,65.0
520,丰台 - 兆丰馨园,116.24645,39.891328,30,丰台,82.43333333333334,72.19906273359783
521,丰台 - 公园懿府,116.37069199999999,39.790874,18,丰台,72.0,63.66720613117817
522,丰台 - 六里桥10号院,116.303646,39.882808000000004,21,丰台,55.23809523809524,71.80653473510617
523,丰台 - 六里桥3号院,116.306178,39.884283,8,丰台,74.125,72.2433807134894
524,丰台 - 六里桥7号院,116.30493,39.884384000000004,2,丰台,63.0,63.973684210526315
525,丰台 - 六里桥北里,116.31006599999999,39.890285,36,丰台,59.416666666666664,83.00129883425332
526,丰台 - 六里桥北里3号院,116.30916200000001,39.886483,5,丰台,70.4,74.71001031991743
527,丰台 - 六里桥小区,116.319027,39.887955,7,丰台,59.0,82.26450843842149
528,丰台 - 六里桥益丰苑,116.308503,39.877333,2,丰台,100.5,69.69486823855756
529,丰台 - 冬季星空,116.36345700000001,39.844482,5,丰台,84.4,76.98451776463779
530,丰台 - 刘家窑南里,116.417625,39.860552,17,丰台,44.94117647058823,87.13229294956848
531,丰台 - 前泥洼,116.304034,39.857846,80,丰台,90.25,63.109689565867384
532,丰台 - 北京方向,116.300405,39.813099,14,丰台,89.92857142857143,86.29691158994744
533,丰台 - 北大地一里,116.282071,39.853327,10,丰台,68.0,64.16703296703297
534,丰台 - 北大地三里,116.281784,39.855298,1,丰台,128.0,56.25
535,丰台 - 北大地二里,116.284729,39.855453999999995,12,丰台,53.916666666666664,81.497113997114
536,丰台 - 北大地四里,116.28411399999999,39.858563000000004,2,丰台,53.0,75.47169811320755
537,丰台 - 北大地小区,116.284925,39.857599,3,丰台,112.0,58.333333333333336
538,丰台 - 北大街南里小区,116.28778500000001,39.858185,9,丰台,58.666666666666664,63.47619047619047
539,丰台 - 华富丽苑,116.25175700000001,39.89053,5,丰台,79.2,59.357697701359676
540,丰台 - 华林家园,116.29444199999999,39.841148,15,丰台,77.86666666666666,72.45234254146264
541,丰台 - 华源一里,116.31659099999999,39.878902000000004,5,丰台,19.2,102.22222222222221
542,丰台 - 华源一里A区,116.31705500000001,39.881703,8,丰台,121.25,52.375
543,丰台 - 华源二里,116.316751,39.876172,3,丰台,166.0,66.26506024096386
544,丰台 - 华芳嘉园,116.4346,39.851295,1,丰台,88.0,65.9090909090909
545,丰台 - 华芳园,116.444523,39.848667999999996,2,丰台,59.0,138.64468864468864
546,丰台 - 南三环东路,116.439062,39.859019,4,丰台,72.5,69.19642857142857
547,丰台 - 南三环中路小区,116.41533799999999,39.857504,1,丰台,21.0,61.904761904761905
548,丰台 - 南华小区,116.377746,39.838949,8,丰台,56.125,73.75537764086826
549,丰台 - 南大元300号院,116.31128500000001,39.84503,1,丰台,68.0,61.76470588235294
550,丰台 - 南宫北里,116.1564,39.80652,2,丰台,112.5,37.0
551,丰台 - 南宫智苑,116.163247,39.802701,4,丰台,98.5,39.97468489002088
552,丰台 - 南宫雅苑,116.156103,39.803545,3,丰台,86.0,40.70855614973262
553,丰台 - 南庭新苑,116.367429,39.803047,35,丰台,55.48571428571429,65.47109752992105
554,丰台 - 南开西里,116.280358,39.841007,4,丰台,57.25,71.34321475625823
555,丰台 - 南曦大厦,116.40296399999998,39.856466,3,丰台,130.0,55.55555555555555
556,丰台 - 南木樨园,116.403778,39.855384,11,丰台,85.36363636363636,67.88313136139222
557,丰台 - 南珠苑,116.360331,39.848991999999996,3,丰台,60.0,82.3451910408432
558,丰台 - 南苑北里,116.40123,39.807354,4,丰台,68.0,58.8235294117647
559,丰台 - 南顶村,116.408469,39.842533,19,丰台,62.10526315789474,82.61293537264966
560,丰台 - 博龙家园,116.253777,39.893877,1,丰台,115.0,65.21739130434783
561,丰台 - 卢西嘉园,116.210408,39.828911,1,丰台,80.0,43.75
562,丰台 - 右安门外东滨河路2号,116.372014,39.867958,3,丰台,48.666666666666664,81.74603174603175
563,丰台 - 右安门外大街22号院,116.365553,39.86332700000001,1,丰台,70.0,78.57142857142857
564,丰台 - 司达小区,116.37959099999999,39.844985,17,丰台,55.8235294117647,86.9351248896796
565,丰台 - 合顺家园,116.373576,39.809402,4,丰台,65.0,61.53846153846154
566,丰台 - 同仁园,116.419376,39.854215,3,丰台,60.0,89.74358974358974
567,丰台 - 同盛里小区,116.290726,39.85024,9,丰台,73.44444444444444,60.583095916429244
568,丰台 - 同馨家园,116.249195,39.877955,3,丰台,83.33333333333333,58.48039215686274
569,丰台 - 名都家苑,116.37264499999999,39.839845000000004,4,丰台,124.75,61.81205035971224
570,丰台 - 周庄子二期,116.2889,39.869298,87,丰台,88.26436781609195,67.16477590554823
571,丰台 - 和义东里,116.40603899999999,39.814258,13,丰台,63.23076923076923,70.47008547008548
572,丰台 - 和义东里五区,116.4045,39.814696999999995,2,丰台,90.0,55.55555555555556
573,丰台 - 和义东里六区,116.405258,39.813014,3,丰台,70.0,68.51851851851852
574,丰台 - 和义西里,116.397177,39.814763,10,丰台,80.5,62.1141975308642
575,丰台 - 嘉业大厦,116.42778600000001,39.856764,7,丰台,165.85714285714286,91.15062718456306
576,丰台 - 嘉业大厦一期,116.42801499999999,39.85771,5,丰台,199.0,80.92307692307693
577,丰台 - 嘉业大厦二期,116.42764199999999,39.856207,2,丰台,201.0,83.91608391608392
578,丰台 - 嘉和人家,116.43813300000001,39.847158,25,丰台,125.0,64.0
579,丰台 - 嘉园一里,116.36841100000001,39.852913,32,丰台,57.40625,91.10086905443599
580,丰台 - 嘉园三里,116.36607,39.842372,33,丰台,35.27272727272727,87.15947352310988
581,丰台 - 嘉园二里,116.367677,39.848633,38,丰台,62.526315789473685,74.60443622606846
582,丰台 - 四合欣园,116.309702,39.824314,4,丰台,68.25,79.3103448275862
583,丰台 - 四方景园一区,116.44311499999999,39.857796,2,丰台,100.0,60.0
584,丰台 - 四方景园三区,116.44021799999999,39.856204,17,丰台,94.76470588235294,61.842747424699716
585,丰台 - 四方景园二区,116.44093400000001,39.857928,5,丰台,71.4,72.81966672166308
586,丰台 - 四方景园五区,116.44261399999999,39.856190999999995,5,丰台,57.6,80.66172290198986
587,丰台 - 四方景园四区,116.44026799999999,39.854726,3,丰台,85.0,64.43512513944242
588,丰台 - 四路通17号院,116.38328999999999,39.864798,1,丰台,65.0,76.92307692307692
589,丰台 - 园博府,116.18651100000001,39.860822,2,丰台,139.0,61.15107913669065
590,丰台 - 园博派,116.187542,39.860326,2,丰台,51.0,58.8235294117647
591,丰台 - 城南嘉园,116.36821200000001,39.834979,33,丰台,102.54545454545455,71.60162228344042
592,丰台 - 城市印象,116.41560600000001,39.858152000000004,2,丰台,30.0,60.0
593,丰台 - 城市时尚家园,116.40983,39.842953,2,丰台,79.0,41.56593406593407
594,丰台 - 城市经典,116.292869,39.833456,7,丰台,70.71428571428571,71.42857142857143
595,丰台 - 城市芳庭,116.436952,39.864927,2,丰台,120.0,81.66666666666667
596,丰台 - 大成时代中心,116.272079,39.888801,25,丰台,110.68,85.88719428878667
597,丰台 - 大成路24号院,116.255645,39.888847999999996,3,丰台,60.0,66.66666666666667
598,丰台 - 大成郡,116.26813100000001,39.887738,25,丰台,128.48,98.26676820908835
599,丰台 - 大溪地二期,116.288647,39.80622,3,丰台,586.6666666666666,115.07936507936508
600,丰台 - 大溪地公寓,116.288836,39.805065,1,丰台,270.0,88.88888888888889
601,丰台 - 大灰厂小区,116.11519299999999,39.853436,3,丰台,70.0,31.428571428571427
602,丰台 - 大瓦窑绿洲家园,116.23517700000001,39.864142,6,丰台,98.0,41.01851851851852
603,丰台 - 大红门东后街,116.407025,39.837215,6,丰台,60.0,75.0
604,丰台 - 大红门南里,116.402612,39.834889000000004,19,丰台,48.26315789473684,88.61109013566917
605,丰台 - 天伦北里,116.34597600000001,39.871901,23,丰台,89.8695652173913,79.43998321660807
606,丰台 - 天伦锦城,116.33388400000001,39.816942,2,丰台,174.0,48.85057471264368
607,丰台 - 天兴家园,116.310483,39.823749,4,丰台,70.75,65.74374942549868
608,丰台 - 天创公馆,116.42708999999999,39.859575,3,丰台,136.0,59.55882352941177
609,丰台 - 天怡晴园,116.42741299999999,39.853460999999996,2,丰台,25.0,100.0
610,丰台 - 天怡福园,116.437486,39.85179,1,丰台,123.0,73.17073170731707
611,丰台 - 天鸿美域,116.24945600000001,39.87335,3,丰台,140.0,55.706269039602375
612,丰台 - 太平桥东里,116.324299,39.888009999999994,8,丰台,63.25,97.95454545454545
613,丰台 - 太平桥小区,116.319027,39.887955,13,丰台,69.61538461538461,91.96972337938347
614,丰台 - 太平桥西里,116.31476,39.882446,13,丰台,55.92307692307692,84.97941266383889
615,丰台 - 威尔夏大道,116.31918200000001,39.881067,15,丰台,136.26666666666668,89.15633343521482
616,丰台 - 宋庄路12号院,116.429051,39.853578999999996,2,丰台,18.0,83.33333333333333
617,丰台 - 定安东里,116.41466899999999,39.859317,7,丰台,70.14285714285714,75.1481108875475
618,丰台 - 宜兰园,116.33492,39.826978000000004,5,丰台,94.2,58.13695529145444
619,丰台 - 宝丰大厦,116.297417,39.842088000000004,5,丰台,79.0,60.0
620,丰台 - 宝汇苑,116.39075,39.858206,18,丰台,61.333333333333336,74.16225749559084
621,丰台 - 宝隆公寓,116.294335,39.831891,38,丰台,61.3421052631579,77.56175854944813
622,丰台 - 宣祥家园,116.406884,39.859091,5,丰台,25.2,83.36798336798337
623,丰台 - 家和园,116.36067,39.860341999999996,2,丰台,141.0,74.47539703202291
624,丰台 - 富丰园,116.28277,39.837041,7,丰台,71.85714285714286,65.88578088578087
625,丰台 - 富丰路8号院,116.27918700000001,39.834948,4,丰台,80.0,65.0
626,丰台 - 富卓苑,116.37510900000001,39.837379999999996,11,丰台,77.0,62.473464974651854
627,丰台 - 富锦嘉园,116.286354,39.816631,62,丰台,85.48387096774194,72.24089106888513
628,丰台 - 小井润园,116.287273,39.87319,7,丰台,103.57142857142857,58.279673542831446
629,丰台 - 小屯路东里1号院,116.256731,39.892671,1,丰台,80.0,56.25
630,丰台 - 尚三环,116.433151,39.849166,2,丰台,25.5,105.92307692307692
631,丰台 - 尚西泊图屋,116.31705900000001,39.878068,3,丰台,102.0,64.35766614338043
632,丰台 - 山语城,116.13953400000001,39.810713,9,丰台,144.66666666666666,58.069588103386295
633,丰台 - 崔村一里,116.19474199999999,39.831703999999995,3,丰台,84.0,41.666666666666664
634,丰台 - 广安康馨家园,116.229968,39.875581,4,丰台,75.75,55.089752040971554
635,丰台 - 广顺园,116.43283400000001,39.850752,1,丰台,95.0,73.6842105263158
636,丰台 - 庄维花园一期,116.28908600000001,39.86246,5,丰台,84.6,62.42948263642806
637,丰台 - 康庄东路19号院,116.309404,39.843301000000004,15,丰台,66.0,77.99778607997786
638,丰台 - 康泽园,116.40981200000002,39.841212,28,丰台,101.25,69.00482984319201
639,丰台 - 建国街二里,116.292731,39.846537,1,丰台,70.0,61.42857142857143
640,丰台 - 建欣苑三里,116.398117,39.83995,4,丰台,76.0,67.67935810682138
641,丰台 - 建欣苑二里,116.395903,39.843236,11,丰台,83.0,73.16538882803944
642,丰台 - 建欣苑五里,116.393185,39.840987,2,丰台,83.0,60.24096385542169
643,丰台 - 建欣苑四里,116.39600700000001,39.839408,13,丰台,70.92307692307692,69.8938898938899
644,丰台 - 建邦枫景,116.25490500000001,39.867599,2,丰台,95.5,63.28883495145631
645,丰台 - 开阳里,116.367455,39.865775,8,丰台,87.375,80.90694874441004
646,丰台 - 开阳里一街,116.367755,39.86825200000001,5,丰台,20.0,95.0
647,丰台 - 开阳里小区,116.367455,39.865775,21,丰台,57.523809523809526,77.65157469359148
648,丰台 - 张郭庄小区,116.19406000000001,39.850716999999996,2,丰台,61.5,62.57267441860465
649,丰台 - 彩虹城一区,116.41631699999999,39.839461,18,丰台,81.94444444444444,74.1770437165174
650,丰台 - 彩虹城三区,116.419503,39.838325,1,丰台,53.0,86.79245283018868
651,丰台 - 彩虹城二区,116.41705400000001,39.838155,4,丰台,43.5,83.26923076923077
652,丰台 - 彩虹城四区,116.41301999999999,39.839104999999996,3,丰台,83.0,75.29239766081871
653,丰台 - 彩虹街区,116.302986,39.840783,7,丰台,104.57142857142857,65.08161020183651
654,丰台 - 御景春天,116.29115,39.816282,38,丰台,48.86842105263158,89.93716433942
655,丰台 - 德福缘小区,116.43626200000001,39.852261,5,丰台,69.0,75.01493409468833
656,丰台 - 德鑫家园,116.373297,39.81658,6,丰台,79.83333333333333,57.568066383179776
657,丰台 - 怡和世家,116.42417900000001,39.837577,26,丰台,70.26923076923077,70.6085231814572
658,丰台 - 怡海花园富泽园,116.304772,39.833181,88,丰台,126.57954545454545,70.93494265030704
659,丰台 - 怡海花园富润园,116.301382,39.831687,62,丰台,110.56451612903226,68.64347444402013
660,丰台 - 怡海花园恒丰园,116.303205,39.835656,10,丰台,81.5,71.79470415168356
661,丰台 - 怡海花园恒泰园,116.299553,39.834567,88,丰台,195.54545454545453,75.96807747679738
662,丰台 - 怡锦园,116.290305,39.833594,35,丰台,107.0,62.660317460317465
663,丰台 - 恋日嘉园,116.355775,39.844699,15,丰台,132.4,64.22945130645007
664,丰台 - 恋日嘉园一期,116.35668000000001,39.84468,1,丰台,173.0,54.91329479768786
665,丰台 - 恋日嘉园二期,116.356771,39.846937,15,丰台,200.2,60.87712341645491
666,丰台 - 恋日花都,116.350792,39.842428999999996,9,丰台,98.88888888888889,70.21303162624662
667,丰台 - 恒富中街,116.29278000000001,39.835446999999995,6,丰台,79.16666666666667,58.08823529411765
668,丰台 - 恒松园,116.41905,39.857959,21,丰台,198.38095238095238,23.267993964664942
669,丰台 - 慧时欣园,116.412595,39.847002,24,丰台,80.625,66.85572282896271
670,丰台 - 慧时欣园一期,116.41443799999999,39.848075,10,丰台,74.7,64.72298325722983
671,丰台 - 慧时欣园二期,116.41266,39.846985,19,丰台,103.52631578947368,70.13264873356331
672,丰台 - 成寿寺路21号院,116.444368,39.852638,4,丰台,87.5,75.52083333333333
673,丰台 - 扑满山,116.427057,39.845438,1,丰台,150.0,100.0
674,丰台 - 政怡家园,116.43155,39.852503999999996,2,丰台,86.0,72.09302325581395
675,丰台 - 政馨园,116.431684,39.845338,64,丰台,58.765625,74.3274909838933
676,丰台 - 政馨家园,116.425449,39.851461,95,丰台,80.54736842105264,65.6759209601315
677,丰台 - 文体路3号院,116.28015800000001,39.868702,2,丰台,87.5,62.908496732026144
678,丰台 - 文成建筑,116.44234399999999,39.849503999999996,3,丰台,125.33333333333333,41.458333333333336
679,丰台 - 新华街一里,116.294145,39.84526500000001,14,丰台,63.5,80.29220779220779
680,丰台 - 新华街七里,116.28668400000001,39.842678,7,丰台,75.14285714285714,65.47249869795039
681,丰台 - 新华街三里,116.29153799999999,39.845154,49,丰台,89.95918367346938,63.37545744583045
682,丰台 - 新华街五里,116.289129,39.843477,55,丰台,78.21818181818182,87.45920745920752
683,丰台 - 新华街六里,116.28902099999999,39.841998,2,丰台,66.0,63.62801377726751
684,丰台 - 新华街四里,116.29048600000002,39.842355,2,丰台,82.5,64.66165413533835
685,丰台 - 新城市经典,116.292869,39.833456,8,丰台,85.0,74.11764705882354
686,丰台 - 新宫家园,116.36304299999999,39.813902,23,丰台,72.34782608695652,62.06946371346592
687,丰台 - 新开路住宅小区,116.28199099999999,39.843816,2,丰台,58.0,77.45341614906832
688,丰台 - 新新天第,116.38156000000001,39.835002,3,丰台,273.3333333333333,96.665
689,丰台 - 新村一里,116.301657,39.84119000000001,1,丰台,65.0,76.92307692307692
690,丰台 - 新村三里,116.310093,39.842307,13,丰台,64.53846153846153,55.554105988063576
691,丰台 - 新村二里,116.3068,39.841722,3,丰台,75.0,59.383753501400555
692,丰台 - 新村四里,116.309385,39.839255,2,丰台,65.0,66.15384615384616
693,丰台 - 方南家园,116.42441399999998,39.851974,4,丰台,20.0,85.0
694,丰台 - 方嘉国际,116.43776299999999,39.858102,11,丰台,91.81818181818181,60.03868471953579
695,丰台 - 方安苑,116.437734,39.856984000000004,3,丰台,78.0,66.44242478244082
696,丰台 - 方庄6号,116.44481599999999,39.859613,13,丰台,136.76923076923077,81.49982069212837
697,丰台 - 方庄六号,116.444079,39.860304,18,丰台,131.88888888888889,79.71593486493421
698,丰台 - 方庄南路18号院,116.44103,39.851309,12,丰台,67.66666666666667,68.04192566692568
699,丰台 - 方恒偶寓,116.438448,39.851082,4,丰台,93.0,67.23901098901099
700,丰台 - 日新家园,116.425132,39.839589000000004,1,丰台,50.0,78.0
701,丰台 - 日月天地,116.432298,39.870373,5,丰台,151.8,86.87211351007599
702,丰台 - 早安方庄,116.44049299999999,39.862103999999995,2,丰台,95.0,73.6842105263158
703,丰台 - 旭日嘉园,116.369229,39.845281,28,丰台,65.75,74.29344433486517
704,丰台 - 时代绿荫,116.44228500000001,39.868694,33,丰台,113.42424242424242,78.90542251156069
705,丰台 - 时代芳群,116.42334699999999,39.865078000000004,24,丰台,148.45833333333334,76.04823805440226
706,丰台 - 明日嘉园,116.366519,39.844814,28,丰台,68.78571428571429,89.98047744738922
707,丰台 - 明月嘉园,116.365944,39.842275,15,丰台,56.333333333333336,86.04666823271474
708,丰台 - 星河城三期,116.365369,39.838048,1,丰台,55.0,90.9090909090909
709,丰台 - 星河城冬季星空,116.36345700000001,39.844482,8,丰台,95.75,71.00794491525424
710,丰台 - 星河城春季星空,116.361374,39.842407,2,丰台,120.0,62.5
711,丰台 - 星河苑,116.3706,39.838747,19,丰台,92.15789473684211,80.81520403368185
712,丰台 - 星河苑1号院,116.36672,39.838722,39,丰台,75.58974358974359,88.85872504723044
713,丰台 - 星河苑2号院,116.369437,39.83856,41,丰台,94.2439024390244,80.72082085795105
714,丰台 - 春风雅筑,116.25864299999999,39.869999,10,丰台,89.6,55.35065800433117
715,丰台 - 晓月四里,116.241475,39.835784999999994,1,丰台,95.0,47.36842105263158
716,丰台 - 晨新园,116.373865,39.846638,11,丰台,75.0909090909091,76.81313131313132
717,丰台 - 晨新园小区,116.37211,39.847195,1,丰台,89.0,61.79775280898876
718,丰台 - 晨欣园,116.373865,39.846638,18,丰台,72.11111111111111,74.7222788105141
719,丰台 - 晶城秀府,116.440882,39.847122999999996,23,丰台,88.6086956521739,74.42029716015446
720,丰台 - 望园东里,116.29142399999999,39.867774,74,丰台,110.39189189189189,61.10572484656916
721,丰台 - 望园小区,116.292001,39.868004,6,丰台,90.83333333333333,65.30830280830281
722,丰台 - 望园西里,116.285559,39.867525,8,丰台,55.0,71.96581196581197
723,丰台 - 未来上层,116.353867,39.84134,1,丰台,102.0,56.86274509803921
724,丰台 - 未来明珠家园,116.37070800000001,39.852009,15,丰台,132.26666666666668,72.88478688172827
725,丰台 - 朱家坟北小区,116.18753000000001,39.809511,4,丰台,67.25,46.95378151260504
726,丰台 - 朱家坟南小区,116.1881,39.80547,2,丰台,80.0,46.509803921568626
727,丰台 - 杜家坎小区,116.20220400000001,39.840309999999995,5,丰台,56.0,55.30303030303031
728,丰台 - 枫泽园,116.31499199999999,39.849513,15,丰台,110.0,72.12121212121214
729,丰台 - 枫竹苑二区,116.371897,39.834368,10,丰台,141.6,68.23202838827838
730,丰台 - 梅市口11号院,116.272196,39.881563,1,丰台,80.0,62.5
731,丰台 - 梅市口路10号院,116.27207800000001,39.879205999999996,1,丰台,80.0,62.5
732,丰台 - 槐树岭小区,116.16958999999999,39.860640000000004,2,丰台,100.5,50.294117647058826
733,丰台 - 横一条甲18号院,116.4353,39.851512,10,丰台,74.8,80.21099902634175
734,丰台 - 横七条11号院,116.423406,39.853519,2,丰台,75.0,61.333333333333336
735,丰台 - 横七条小区,116.423406,39.853519,1,丰台,60.0,83.33333333333333
736,丰台 - 横五条2号院,116.42706299999999,39.857581,1,丰台,60.0,83.33333333333333
737,丰台 - 欣园铁路小区,116.33108500000002,39.874082,13,丰台,61.69230769230769,66.18037135278514
738,丰台 - 欣葆家园,116.287512,39.803447,1,丰台,55.0,69.0909090909091
739,丰台 - 正邦嘉园一期,116.42420200000001,39.854877,7,丰台,49.57142857142857,64.24876025176427
740,丰台 - 正邦嘉园二期,116.42430700000001,39.854791,9,丰台,39.77777777777778,76.76286676286676
741,丰台 - 正阳北里,116.288104,39.849959999999996,3,丰台,65.0,64.61538461538461
742,丰台 - 正阳小区,116.286267,39.849940999999994,25,丰台,70.48,59.86958002781532
743,丰台 - 民岳家园,116.27016599999999,39.879812,11,丰台,98.18181818181819,63.282828282828284
744,丰台 - 永善里,116.28556699999999,39.848943,5,丰台,94.0,61.737136066547826
745,丰台 - 永外果园,116.400681,39.848194,5,丰台,82.8,61.333333333333336
746,丰台 - 永翌公馆,116.30210500000001,39.886204,9,丰台,97.33333333333333,75.54418140726689
747,丰台 - 汤泉墅,116.15461499999999,39.78890300000001,4,丰台,86.75,39.59085051546392
748,丰台 - 沸城,116.24341000000001,39.83329000000001,1,丰台,135.0,38.51851851851852
749,丰台 - 泥洼路,116.300079,39.863861,2,丰台,65.0,84.61538461538461
750,丰台 - 泥洼路5号院,116.298547,39.864283,13,丰台,56.53846153846154,73.75940299017222
751,丰台 - 泥洼路6号院,116.30138400000001,39.863734,7,丰台,75.71428571428571,62.89424860853432
752,丰台 - 洋桥东里小区,116.384247,39.858641999999996,1,丰台,70.0,57.142857142857146
753,丰台 - 洋桥北里,116.381072,39.862046,15,丰台,74.0,73.11111111111111
754,丰台 - 洋桥西里,116.38071000000001,39.858548,12,丰台,56.333333333333336,76.93847818847819
755,丰台 - 流星苑,116.371738,39.841546,37,丰台,49.54054054054054,93.21668003280699
756,丰台 - 海上海花园,116.387638,39.836214,10,丰台,100.1,64.04741841969549
757,丰台 - 海丰家园,116.291227,39.891511,4,丰台,160.0,56.25
758,丰台 - 海户屯,116.402672,39.852973999999996,1,丰台,65.0,76.92307692307692
759,丰台 - 海户西里,116.388254,39.854965,3,丰台,56.666666666666664,72.44444444444446
760,丰台 - 润景家园,116.36995,39.855407,39,丰台,100.76923076923077,72.7250708540527
761,丰台 - 清水绿洲嘉园,116.169129,39.802316,1,丰台,137.0,32.846715328467155
762,丰台 - 游泳场北路,116.293922,39.855545,3,丰台,70.0,60.0
763,丰台 - 熙公馆公寓,116.25147,39.836621,8,丰台,48.75,87.88888888888889
764,丰台 - 燕西华府住宅,116.11192,39.797494,4,丰台,125.0,39.59790209790209
765,丰台 - 玉安园,116.361553,39.848784,6,丰台,94.16666666666667,66.62376662376663
766,丰台 - 玉林东里,116.36136,39.867084999999996,6,丰台,34.166666666666664,87.14814814814815
767,丰台 - 玉林东里一区,116.362125,39.867422999999995,2,丰台,55.0,85.12820512820512
768,丰台 - 玉林东里二区,116.36158999999999,39.865925,2,丰台,50.0,95.0
769,丰台 - 玉林小区,116.358347,39.866516,2,丰台,57.5,80.75757575757575
770,丰台 - 玉林里小区,116.358347,39.866516,2,丰台,72.5,75.24038461538461
771,丰台 - 玉芳园,116.360176,39.846474,3,丰台,98.0,66.3265306122449
772,丰台 - 玺萌丽苑,116.36363999999999,39.849799,34,丰台,86.05882352941177,61.61648450340281
773,丰台 - 玺萌公馆,116.363601,39.842176,29,丰台,145.3448275862069,78.0461333319232
774,丰台 - 玺萌城市间,116.361585,39.846781,18,丰台,73.22222222222223,78.66005253776154
775,丰台 - 玺萌苑,116.363996,39.845387,1,丰台,112.0,51.785714285714285
776,丰台 - 玺萌鹏苑,116.362546,39.851619,29,丰台,97.10344827586206,63.465075961303995
777,丰台 - 珠光御景,116.177175,39.835276,5,丰台,80.0,44.5
778,丰台 - 珠江御景,116.177663,39.819188,5,丰台,128.0,42.96875
779,丰台 - 珠江骏景中区,116.39567,39.85249500000001,3,丰台,177.0,56.49717514124294
780,丰台 - 珠江骏景南区,116.39578,39.85073,1,丰台,56.0,76.78571428571429
781,丰台 - 瑞丽江畔,116.373384,39.842892,11,丰台,127.27272727272727,66.31901311643684
782,丰台 - 璞瑅,116.439807,39.861647,4,丰台,247.5,81.38157894736841
783,丰台 - 百合园,116.363281,39.860935999999995,1,丰台,60.0,70.0
784,丰台 - 益丰园,116.416296,39.809556,2,丰台,85.0,54.535147392290256
785,丰台 - 益丰苑,116.308503,39.877333,2,丰台,100.0,65.0
786,丰台 - 益辰欣园,116.315079,39.823772,25,丰台,107.56,69.07432130763846
787,丰台 - 盛今大厦,116.30060700000001,39.889069,4,丰台,105.0,64.76190476190476
788,丰台 - 盛鑫嘉园,116.303211,39.858837,14,丰台,87.71428571428571,61.00496013197722
789,丰台 - 看丹苑,116.29037199999999,39.840851,2,丰台,80.0,60.0
790,丰台 - 石榴园北里,116.41789399999999,39.847878,51,丰台,67.66666666666667,72.24194467840351
791,丰台 - 石榴园南里,116.418167,39.844009,26,丰台,62.19230769230769,77.14595146101993
792,丰台 - 石榴庄,116.414103,39.845905,3,丰台,81.66666666666667,70.88319088319088
793,丰台 - 石榴庄小区,116.42621100000001,39.841829,9,丰台,52.77777777777778,107.33618233618233
794,丰台 - 石榴庄西街小区,116.414304,39.84294600000001,3,丰台,65.0,92.3076923076923
795,丰台 - 矿冶宿舍楼,116.357173,39.849647,2,丰台,105.0,63.711734693877546
796,丰台 - 福海小区,116.39008999999999,39.845448,10,丰台,94.1,69.84210526315789
797,丰台 - 福海棠华苑,116.384479,39.833312,17,丰台,79.52941176470588,63.58338312349739
798,丰台 - 福臻家园,116.434109,39.85479,7,丰台,115.0,67.6844070961718
799,丰台 - 福顺里小区,116.280653,39.846897,25,丰台,62.48,70.72416780724086
800,丰台 - 科兴佳园,116.282932,39.888059999999996,2,丰台,155.0,67.70833333333334
801,丰台 - 程庄南里,116.264404,39.851248999999996,4,丰台,68.75,32.16346153846154
802,丰台 - 第七街区,116.278589,39.88231,7,丰台,46.857142857142854,94.61412151067324
803,丰台 - 筑梦缘,116.42527199999999,39.856518,2,丰台,89.0,79.21545667447307
804,丰台 - 糖人街,116.31633500000001,39.88179,5,丰台,69.0,82.99339875111508
805,丰台 - 紫光园,116.308136,39.851031,1,丰台,580.0,34.48275862068966
806,丰台 - 紫峪家园,116.17508000000001,39.843508,2,丰台,88.0,34.09090909090909
807,丰台 - 紫熙台,116.27733300000001,39.881538,25,丰台,195.88,95.07737477808625
808,丰台 - 紫芳园一区,116.443091,39.864993,37,丰台,125.37837837837837,82.3472208977188
809,丰台 - 紫芳园三区,116.439819,39.863274,22,丰台,115.9090909090909,83.36551751487782
810,丰台 - 紫芳园二区,116.443494,39.863364000000004,9,丰台,187.33333333333334,90.19188212371189
811,丰台 - 紫芳园五区,116.44338,39.861504,17,丰台,233.88235294117646,84.424722462064
812,丰台 - 紫芳园六区,116.44343400000001,39.859856,3,丰台,113.66666666666667,79.43344413932648
813,丰台 - 红庭,116.277933,39.883106,3,丰台,80.0,68.75
814,丰台 - 红狮家园,116.428878,39.848453000000006,81,丰台,55.03703703703704,86.587294633908
815,丰台 - 羊坊花园,116.308319,39.7909,1,丰台,139.0,50.35971223021583
816,丰台 - 翠庭园,116.43813300000001,39.847158,1,丰台,130.0,57.69230769230769
817,丰台 - 翠林三里,116.367718,39.858389,3,丰台,40.666666666666664,89.92063492063492
818,丰台 - 翠林二里,116.371747,39.860655,4,丰台,41.25,91.73015873015872
819,丰台 - 翠海明苑,116.36020400000001,39.809664,55,丰台,100.18181818181819,52.34100768470797
820,丰台 - 育仁里,116.309978,39.827641,7,丰台,71.42857142857143,65.63294553042384
821,丰台 - 育芳园,116.318549,39.849893,41,丰台,68.1951219512195,68.64857157975563
822,丰台 - 胡桃园,116.2819,39.871864,22,丰台,112.0,69.64285714285712
823,丰台 - 花椒树小区,116.38585900000001,39.86166,1,丰台,85.0,29.41176470588235
824,丰台 - 芳古园一区,116.42441200000002,39.868713,40,丰台,61.675,84.81393557490823
825,丰台 - 芳古园二区,116.428752,39.869814,4,丰台,125.0,99.19999999999999
826,丰台 - 芳城东里,116.44228500000001,39.867121000000004,1,丰台,54.0,74.05555555555556
827,丰台 - 芳城园一区,116.435732,39.869467,57,丰台,95.73684210526316,82.6672279821391
828,丰台 - 芳城园三区,116.436471,39.867204,41,丰台,64.1951219512195,89.46812467200292
829,丰台 - 芳城园二区,116.43156499999999,39.868438,7,丰台,57.57142857142857,88.63321774619348
830,丰台 - 芳安苑,116.437734,39.856984000000004,4,丰台,15.0,173.33333333333334
831,丰台 - 芳星园一区,116.432519,39.865103999999995,18,丰台,82.44444444444444,94.31905030108821
832,丰台 - 芳星园三区,116.435281,39.860482,40,丰台,59.025,92.63518469324774
833,丰台 - 芳星园二区,116.436276,39.865481,8,丰台,53.75,95.76923076923077
834,丰台 - 芳林苑,116.444179,39.86606,16,丰台,118.375,58.89061645708039
835,丰台 - 芳泽园,116.436222,39.853755,10,丰台,51.5,76.21212121212122
836,丰台 - 芳群公寓,116.42486299999999,39.85913,5,丰台,76.8,80.60463419084108
837,丰台 - 芳群园,116.42688799999999,39.860406,18,丰台,69.94444444444444,74.36458148738852
838,丰台 - 芳群园一区,116.42480800000001,39.864033,34,丰台,59.1764705882353,97.35043160766426
839,丰台 - 芳群园三区,116.42688799999999,39.860406,15,丰台,68.4,82.30393996247655
840,丰台 - 芳群园二区,116.42815900000001,39.865571,14,丰台,59.0,74.64256668593701
841,丰台 - 芳群园四区,116.430319,39.860240999999995,5,丰台,42.8,82.21428571428571
842,丰台 - 苇子坑1号院,116.44534099999998,39.846852,1,丰台,55.0,90.9090909090909
843,丰台 - 苇子坑22号院,116.441337,39.84415,11,丰台,41.36363636363637,108.15647766867279
844,丰台 - 苗圃东里,116.402399,39.844435,4,丰台,65.0,73.84615384615384
845,丰台 - 草桥东路18号院,116.35989,39.849740000000004,1,丰台,110.0,60.90909090909091
846,丰台 - 草桥欣园,116.35825600000001,39.844592,1,丰台,68.0,100.0
847,丰台 - 草桥欣园三区,116.35762700000001,39.843069,2,丰台,52.0,80.46875
848,丰台 - 草桥欣园四区,116.35216299999999,39.842662,13,丰台,93.0,65.71752494263718
849,丰台 - 草桥玉安园,116.361553,39.848784,2,丰台,111.0,63.06306306306306
850,丰台 - 莲宝路5号院,116.302328,39.890882,8,丰台,77.75,72.7408536585366
851,丰台 - 莲怡园一区,116.301143,39.885698,6,丰台,67.0,64.50289495450785
852,丰台 - 莲怡园二区,116.29716200000001,39.885649,12,丰台,100.41666666666667,57.807588587979474
853,丰台 - 莲花池南里,116.31444199999999,39.888273999999996,9,丰台,69.88888888888889,72.27747929773003
854,丰台 - 莲花池西里,116.30811399999999,39.89244,5,丰台,112.0,74.29864253393666
855,丰台 - 莲花池西里6号院,116.309246,39.892872,3,丰台,126.66666666666667,51.86507936507937
856,丰台 - 莲香园,116.301355,39.887908,22,丰台,90.5909090909091,68.84548823280237
857,丰台 - 莲馨嘉园,116.30606100000001,39.890413,15,丰台,99.6,70.61629374641421
858,丰台 - 葛村西里,116.308062,39.847017,11,丰台,76.63636363636364,62.99555686199139
859,丰台 - 蒲安东里,116.419325,39.862709,6,丰台,75.0,80.26990553306344
860,丰台 - 蒲安北里,116.420491,39.866351,3,丰台,65.66666666666667,79.79334098737084
861,丰台 - 蒲安西里,116.41626799999999,39.864133,3,丰台,46.0,86.95652173913044
862,丰台 - 蒲安里小区,116.417864,39.862246,13,丰台,53.38461538461539,74.0631868131868
863,丰台 - 蒲黄榆一里,116.42076499999999,39.868258000000004,2,丰台,80.0,65.0
864,丰台 - 蒲黄榆三里小区,116.415348,39.870071,1,丰台,42.0,88.0952380952381
865,丰台 - 蒲黄榆二巷,116.419053,39.864699,2,丰台,65.0,84.61538461538461
866,丰台 - 蒲黄榆五巷,116.416738,39.866502000000004,2,丰台,55.0,92.13675213675214
867,丰台 - 蒲黄榆四里,116.416426,39.867796999999996,1,丰台,70.0,74.28571428571429
868,丰台 - 蒲黄榆路,116.421598,39.863586,1,丰台,69.0,66.66666666666667
869,丰台 - 蓝光云鼎,116.37965600000001,39.834920000000004,67,丰台,126.85074626865672,63.16448498267735
870,丰台 - 融达国际,116.319562,39.852523,4,丰台,87.0,88.21839080459769
871,丰台 - 裕隆园,116.407802,39.844753000000004,3,丰台,15.0,106.66666666666667
872,丰台 - 西四环南路,116.286654,39.837854,1,丰台,90.0,53.333333333333336
873,丰台 - 西四环南路32号院,116.28076200000001,39.871256,3,丰台,65.0,58.46153846153846
874,丰台 - 西宏苑,116.379912,39.800139,3,丰台,71.66666666666667,56.76190476190476
875,丰台 - 西局欣园,116.29698400000001,39.868453,57,丰台,101.82456140350877,62.31569036007585
876,丰台 - 西局欣园北区,116.296995,39.869599,2,丰台,117.5,74.16666666666666
877,丰台 - 西局欣园南区,116.29721200000002,39.868214,28,丰台,111.5,62.267412341485006
878,丰台 - 西局玉园,116.301548,39.869918,127,丰台,193.88976377952756,69.40619881846267
879,丰台 - 西幸福街,116.282549,39.851468,2,丰台,67.5,63.791208791208796
880,丰台 - 西府兰庭,116.276123,39.888828000000004,1,丰台,145.0,75.86206896551724
881,丰台 - 西府景园,116.27006999999999,39.88237,1,丰台,120.0,60.0
882,丰台 - 西木樨园,116.392677,39.857234999999996,3,丰台,38.0,92.10526315789474
883,丰台 - 西洼地社区,116.407027,39.806412,2,丰台,54.0,61.44827586206897
884,丰台 - 西罗园一区,116.39440400000001,39.860332,7,丰台,18.0,88.8888888888889
885,丰台 - 西罗园三区,116.388871,39.859406,1,丰台,75.0,66.66666666666667
886,丰台 - 西罗园二区,116.392559,39.858810999999996,7,丰台,11.0,90.90909090909089
887,丰台 - 西罗园北路,116.38518899999998,39.863706,2,丰台,65.0,84.61538461538461
888,丰台 - 西罗园南里,116.39231699999999,39.854133000000004,13,丰台,39.53846153846154,86.05015673981191
889,丰台 - 西罗园四区,116.38983,39.862451,54,丰台,64.05555555555556,86.83679985404127
890,丰台 - 西马小区,116.38228500000001,39.840835999999996,3,丰台,71.0,69.66042966042966
891,丰台 - 西马金润家园,116.381752,39.83951500000001,91,丰台,84.13186813186813,74.15116395206103
892,丰台 - 角门13号院,116.375289,39.841753999999995,3,丰台,54.0,66.04896675651393
893,丰台 - 角门16号院,116.37718600000001,39.837408,8,丰台,71.875,74.10714285714285
894,丰台 - 角门7号院,116.373727,39.845651000000004,2,丰台,80.0,62.5
895,丰台 - 角门9号院,116.372972,39.845164000000004,2,丰台,75.0,73.33333333333333
896,丰台 - 角门东里,116.384616,39.847858,62,丰台,60.04838709677419,75.46390168692812
897,丰台 - 角门北路11号院,116.378498,39.850939000000004,3,丰台,65.0,76.92307692307692
898,丰台 - 角门甲4号院,116.389928,39.848411,1,丰台,72.0,70.83333333333333
899,丰台 - 角门西里小区,116.37510800000001,39.84894,5,丰台,32.0,92.8
900,丰台 - 设计师广场,116.284578,39.837576,9,丰台,40.0,89.54156223893067
901,丰台 - 诚苑中里,116.373398,39.805616,6,丰台,55.0,54.545454545454554
902,丰台 - 贾家花园,116.41945600000001,39.851708,13,丰台,90.61538461538461,72.38658777120315
903,丰台 - 赵公口小区,116.41313600000001,39.855458,8,丰台,56.625,84.72222222222221
904,丰台 - 跃城UP365,116.410001,39.842936,5,丰台,98.6,69.16689872830224
905,丰台 - 远洋自然,116.390175,39.840917,5,丰台,110.4,65.61085972850678
906,丰台 - 迦南公寓,116.36571599999999,39.86864600000001,4,丰台,202.75,67.95580110497238
907,丰台 - 造甲南里,116.29807199999999,39.841570000000004,30,丰台,69.7,91.5594878977232
908,丰台 - 郑王坟141号,116.338307,39.849675,2,丰台,55.0,76.36363636363636
909,丰台 - 郭公庄幸福家园,116.309724,39.818321999999995,32,丰台,91.9375,63.623287866200236
910,丰台 - 金丰园,116.31573999999999,39.850421000000004,4,丰台,77.5,64.1066384180791
911,丰台 - 金兴苑,116.342678,39.867086,2,丰台,61.0,70.49180327868852
912,丰台 - 金唐国际公寓,116.314902,39.879348,3,丰台,129.0,69.76744186046511
913,丰台 - 金家村1号院,116.29480900000001,39.89562700000001,36,丰台,92.52777777777777,77.40632624883274
914,丰台 - 金家村283号,116.29222,39.892878,4,丰台,45.0,77.77777777777777
915,丰台 - 金家村288号院,116.293892,39.892476,3,丰台,82.0,65.20160317851024
916,丰台 - 金泰城丽湾,116.342285,39.87037,18,丰台,95.61111111111111,79.08895342709388
917,丰台 - 金第润苑,116.441097,39.848729999999996,3,丰台,58.0,75.28735632183908
918,丰台 - 金都苑,116.332508,39.86537,9,丰台,81.22222222222223,55.757075268449604
919,丰台 - 鑫兆雅园,116.427554,39.844075,63,丰台,60.317460317460316,74.32495619456165
920,丰台 - 鑫兆雅园三期,116.427554,39.844075,1,丰台,97.0,72.16494845360825
921,丰台 - 鑫源国际,116.44448999999999,39.85781400000001,60,丰台,128.43333333333334,68.84935611776937
922,丰台 - 铁路小区,116.298119,39.887229,13,丰台,76.46153846153847,76.13049186903616
923,丰台 - 银地家园,116.33314399999999,39.822204,7,丰台,71.42857142857143,70.28035456606885
924,丰台 - 锦苑B区,116.41538899999999,39.817734,4,丰台,63.0,60.317460317460316
925,丰台 - 锦苑小区,116.417266,39.817717,1,丰台,100.0,45.0
926,丰台 - 镇岗南里,116.168875,39.811035,1,丰台,45.0,48.888888888888886
927,丰台 - 长安新城,116.264374,39.885193,29,丰台,118.41379310344827,70.25705772220878
928,丰台 - 长安新城一区,116.259125,39.887527,66,丰台,117.15151515151516,61.96160187590921
929,丰台 - 阅园,116.281718,39.882625,4,丰台,128.5,63.255494505494504
930,丰台 - 阳光四季,116.293375,39.834765999999995,6,丰台,130.0,55.0625
931,丰台 - 阳光花园,116.38261399999999,39.844826,20,丰台,72.15,83.11640719599838
932,丰台 - 青塔东里,116.27055800000001,39.89492,43,丰台,80.37209302325581,65.523182425378
933,丰台 - 青塔东里10号院,116.27103899999999,39.895357000000004,2,丰台,80.0,68.75
934,丰台 - 青塔南里,116.265115,39.893514,14,丰台,71.21428571428571,67.36929855168701
935,丰台 - 青塔春园,116.255817,39.890519,14,丰台,63.357142857142854,68.79273504273503
936,丰台 - 青塔秀园,116.26267,39.891115,5,丰台,55.4,69.5182884748102
937,丰台 - 青塔芳园,116.25884199999999,39.891326,3,丰台,60.0,73.33333333333333
938,丰台 - 青塔蔚园,116.26243999999998,39.894146,28,丰台,70.67857142857143,68.13883295793234
939,丰台 - 青塔西里4号院,116.26710800000001,39.895127,2,丰台,75.0,60.0
940,丰台 - 靛厂锦园,116.27921599999999,39.88786500000001,6,丰台,64.16666666666667,69.63675213675214
941,丰台 - 韩庄子三里,116.29111499999999,39.837856,6,丰台,60.833333333333336,80.98290598290598
942,丰台 - 韩庄子东里,116.29276899999999,39.839571,1,丰台,57.0,73.6842105263158
943,丰台 - 韩庄子二里,116.288569,39.837178,10,丰台,68.8,66.15796703296704
944,丰台 - 韩庄子四里,116.292899,39.838111,10,丰台,54.5,78.82369354783148
945,丰台 - 韩庄子西里,116.289927,39.83954,38,丰台,75.26315789473684,70.5074570284606
946,丰台 - 顶秀欣园,116.42733899999999,39.838902000000004,14,丰台,83.21428571428571,65.21042803787482
947,丰台 - 顶秀欣园东苑,116.42975700000001,39.837633000000004,30,丰台,66.76666666666667,65.42032310098136
948,丰台 - 顶秀西苑,116.42730900000001,39.838914,22,丰台,80.81818181818181,68.11935683364253
949,丰台 - 顶秀金瑞家园,116.431975,39.840035,11,丰台,27.454545454545453,83.98638844686276
950,丰台 - 顶秀金石家园,116.43114399999999,39.836355,37,丰台,71.02702702702703,64.56844090467644
951,丰台 - 顶秀金颐家园,116.431973,39.841478,15,丰台,57.8,79.7474721640962
952,丰台 - 顺八条3号院,116.43193799999999,39.850021999999996,1,丰台,57.0,105.26315789473684
953,丰台 - 顺四条甲20号院,116.425817,39.853587,6,丰台,85.0,75.484496124031
954,丰台 - 顺驰蓝调国际,116.338799,39.871645,6,丰台,149.66666666666666,67.17427733556768
955,丰台 - 风景club,116.351216,39.84130800000001,2,丰台,100.0,66.0
956,丰台 - 风荷曲苑,116.30070500000001,39.883379,50,丰台,121.98,87.90951032681676
957,丰台 - 首座绿洲,116.38178899999998,39.851290999999996,7,丰台,95.28571428571429,77.82923287282244
958,丰台 - 首开璞瑅,116.439807,39.861647,27,丰台,146.22222222222223,105.70794369910602
959,丰台 - 首开璞瑅公馆,116.439807,39.861647,16,丰台,231.6875,83.47036977859344
960,丰台 - 首开石榴派,116.42621100000001,39.841829,4,丰台,45.0,93.33333333333333
961,丰台 - 首科花园,116.31938899999999,39.878633,84,丰台,174.21428571428572,69.7373983382645
962,丰台 - 马公庄小区,116.408818,39.855559,7,丰台,49.285714285714285,102.97258297258296
963,丰台 - 马官营家园,116.298225,39.883949,20,丰台,149.75,62.06766917293233
964,丰台 - 马家堡67号院,116.37806200000001,39.842805,8,丰台,87.5,64.0625
965,丰台 - 马家堡西里,116.374168,39.852835,39,丰台,62.92307692307692,72.53816110474631
966,丰台 - 马家堡西里小区,116.37368799999999,39.852742,2,丰台,56.5,86.76470588235294
967,丰台 - 高庄小区,116.405376,39.845181,7,丰台,100.0,105.0
968,丰台 - 鸿业兴园,116.308582,39.836778,68,丰台,97.22058823529412,67.22820672154002
969,丰台 - 鸿业兴园二期,116.306573,39.838709,10,丰台,91.4,65.70446735395188
970,丰台 - 鹏润家园,116.34688899999999,39.86972700000001,13,丰台,153.07692307692307,75.56182556182557
971,丰台 - 鹏润家园豪苑,116.346744,39.869710999999995,6,丰台,168.0,16.071428571428573
972,丰台 - 鼎立家园,116.36568700000001,39.860741,2,丰台,116.5,66.44043910399051
973,北京周边 - 大运河孔雀城,116.47026799999999,39.908379,2,北京周边,101.0,10.891089108910892
974,北京周边 - 天悦,116.426248,39.999744,5,北京周边,104.0,11.538461538461538
975,北京周边 - 孔雀大卫城,116.70043999999999,39.93638,48,北京周边,86.66666666666667,16.587448431614394
976,北京周边 - 富力新城,117.00353,39.813424,5,北京周边,81.6,13.50909090909091
977,北京周边 - 尚品国际,116.33359499999999,39.963035999999995,3,北京周边,89.33333333333333,16.05076987099459
978,北京周边 - 新东亚时代广场,116.33016,40.079007,2,北京周边,36.0,50.0
979,北京周边 - 永定河孔雀城住宅,116.36651599999999,39.854386,3,北京周边,87.33333333333333,20.146425495262704
980,北京周边 - 永定河孔雀城英国宫,116.47478500000001,39.907257,9,北京周边,97.22222222222223,17.084455674874693
981,北京周边 - 永定河孔雀英国宫,116.47478500000001,39.907257,2,北京周边,103.0,17.475728155339805
982,北京周边 - 潮白河孔雀城四季澜湾,116.80103999999999,39.943625,1,北京周边,85.0,15.294117647058824
983,北京周边 - 潮白河孔雀城温莎郡,116.47026799999999,39.908379,9,北京周边,95.66666666666667,16.824663585137873
984,北京周边 - 潮白河孔雀英国宫,116.47478500000001,39.907257,67,北京周边,91.95522388059702,16.531541981297156
985,北京周边 - 秦皇岛恒大城,116.26385800000001,40.17081500000001,3,北京周边,68.0,22.058823529411764
986,北京周边 - 紫金华府,116.40980800000001,39.908742,40,北京周边,130.0,120.27257778902101
987,北京周边 - 鼎晟国际,116.64946299999998,39.9066,3,北京周边,56.0,66.07142857142857
988,大兴 - 一品亦庄,116.499496,39.802669,18,大兴,119.61111111111111,55.61506668494871
989,大兴 - 三合北巷,116.322396,39.735347,2,大兴,74.5,44.68164794007491
990,大兴 - 三合南里,116.32562,39.734516,2,大兴,75.0,49.333333333333336
991,大兴 - 上林苑,116.436536,39.782245,3,大兴,45.0,70.47619047619048
992,大兴 - 上海沙龙,116.497854,39.789162,53,大兴,95.94339622641509,63.72200042143584
993,大兴 - 上筑家园,116.463373,39.79760200000001,6,大兴,80.83333333333333,72.10401891252954
994,大兴 - 世嘉博苑,116.32682199999999,39.791878999999994,12,大兴,79.0,64.79377104377103
995,大兴 - 东亚五环国际,116.45436399999998,39.79331,38,大兴,92.02631578947368,66.08582734549297
996,大兴 - 东晶国际,116.493675,39.799658,1,大兴,40.0,85.0
997,大兴 - 中信墅,116.47263400000001,39.78696400000001,4,大兴,155.0,54.83870967741935
998,大兴 - 中信新城,116.48227299999999,39.782817,23,大兴,104.3913043478261,55.22711641985548
999,大兴 - 中冶德贤公馆,116.42926399999999,39.820031,29,大兴,148.68965517241378,69.29607515047265
1000,大兴 - 中建国际港,116.331075,39.753824,25,大兴,102.32,57.59303656596575
1001,大兴 - 丽园A区,116.320178,39.753997999999996,1,大兴,238.0,56.72268907563025
1002,大兴 - 丽园B区,116.320131,39.75152,3,大兴,123.0,52.84552845528455
1003,大兴 - 九龙家园,116.34616799999999,39.79667,3,大兴,207.0,72.46376811594203
1004,大兴 - 九龙家园北区,116.343567,39.799757,4,大兴,163.0,73.61963190184049
1005,大兴 - 九龙山庄二区,116.34463899999999,39.802228,1,大兴,140.0,48.57142857142857
1006,大兴 - 云河墅,116.32907900000001,39.766279,3,大兴,92.0,65.21739130434783
1007,大兴 - 云龙家园,116.43436200000001,39.807634,24,大兴,69.20833333333333,65.75628615932354
1008,大兴 - 亦庄北岸,116.463373,39.79760200000001,7,大兴,79.71428571428571,65.40104413858568
1009,大兴 - 亦庄金茂悦,116.48401299999999,39.754439,16,大兴,188.375,56.25210638585289
1010,大兴 - 众美MIMO公馆,116.32271999999999,39.630796000000004,40,大兴,46.675,44.95163832033112
1011,大兴 - 众美城,116.32266899999999,39.632261,5,大兴,97.6,34.41983109033087
1012,大兴 - 住总万科橙,116.323757,39.68988,15,大兴,76.0,55.26315789473685
1013,大兴 - 佟家园,116.32013,39.72498,2,大兴,50.0,52.0
1014,大兴 - 佳和园,116.44551299999999,39.806456,1,大兴,81.0,49.382716049382715
1015,大兴 - 保利春天派,116.32196299999998,39.672534999999996,10,大兴,68.9,45.62691040302981
1016,大兴 - 保利春天里,116.32196299999998,39.672534999999996,3,大兴,112.33333333333333,44.598540145985396
1017,大兴 - 保利茉莉公馆,116.328873,39.774829,29,大兴,97.62068965517241,63.594140509661415
1018,大兴 - 兴创屹墅公寓,116.337745,39.768384999999995,11,大兴,271.8181818181818,91.991341991342
1019,大兴 - 兴华嘉园,116.32858999999999,39.771236,3,大兴,86.0,40.69767441860465
1020,大兴 - 兴华园,116.336008,39.746446999999996,5,大兴,145.6,43.12101910828026
1021,大兴 - 兴华家园,116.331997,39.728885999999996,4,大兴,56.0,53.99129172714078
1022,大兴 - 兴康家园,116.309694,39.75484,7,大兴,87.57142857142857,49.25001383738307
1023,大兴 - 兴政家园,116.330917,39.728609999999996,4,大兴,99.0,48.14814814814815
1024,大兴 - 兴政西里,116.335825,39.729512,2,大兴,75.0,47.5
1025,大兴 - 兴海园,116.45118500000001,39.76489,2,大兴,95.0,52.631578947368425
1026,大兴 - 兴海家园,116.331595,39.792473,6,大兴,60.5,67.51068376068376
1027,大兴 - 兴海家园月苑,116.336643,39.79347,7,大兴,68.71428571428571,62.52350373474685
1028,大兴 - 兴盛国际公寓,116.45555,39.918186,2,大兴,40.0,75.0
1029,大兴 - 兴盛街189号院,116.316387,39.751321000000004,5,大兴,65.0,53.84615384615385
1030,大兴 - 兴都苑西区,116.33639699999999,39.796742,1,大兴,86.0,63.95348837209303
1031,大兴 - 力宝广场诗礼庭,116.502381,39.803810999999996,5,大兴,178.0,77.66327671545064
1032,大兴 - 北京城建海梓府,116.485867,39.758196999999996,3,大兴,204.0,73.52941176470588
1033,大兴 - 北京城建红木林,116.32538500000001,39.754859,2,大兴,115.0,68.38687628161313
1034,大兴 - 北京经开荣京道公寓,116.497367,39.78579600000001,2,大兴,102.0,56.372549019607845
1035,大兴 - 北空住宅小区,116.437619,39.820744,15,大兴,127.93333333333334,41.754305215156975
1036,大兴 - 北空小区,116.437619,39.820744,2,大兴,102.0,49.50980392156863
1037,大兴 - 华昱家园,116.328804,39.72844600000001,1,大兴,86.0,58.13953488372093
1038,大兴 - 华润公元九里,116.319005,39.76493,3,大兴,128.0,77.72331154684096
1039,大兴 - 华远和墅雅园,116.401522,39.703078999999995,2,大兴,135.0,25.37037037037037
1040,大兴 - 南海家园,116.49273600000001,39.760228999999995,114,大兴,86.50877192982456,40.60031287910468
1041,大兴 - 卡尔公寓,116.49636799999999,39.787804,10,大兴,183.9,56.04530581424617
1042,大兴 - 原生墅公寓,116.32557299999999,39.760393,8,大兴,159.375,54.32035519125683
1043,大兴 - 双河北里,116.34804399999999,39.739689,3,大兴,98.0,38.4914089347079
1044,大兴 - 双河南里,116.347199,39.734155,1,大兴,86.0,46.51162790697674
1045,大兴 - 同兴园,116.36436200000001,39.795679,18,大兴,108.05555555555556,51.85185185185184
1046,大兴 - 君安国际公寓,116.512863,39.787875,19,大兴,123.84210526315789,61.66771087817805
1047,大兴 - 听涛雅苑,116.49098700000002,39.798085,12,大兴,102.5,57.819913853619305
1048,大兴 - 国锐金嵿,116.509128,39.790259000000006,70,大兴,131.75714285714287,69.6979830448411
1049,大兴 - 国韵村,116.430456,39.817919,38,大兴,155.21052631578948,66.77716451319593
1050,大兴 - 城乡世纪广场莫尔空间,116.53295800000001,39.801299,7,大兴,122.42857142857143,39.52557373928341
1051,大兴 - 境界家园,116.48556,39.796291,2,大兴,240.0,70.1058201058201
1052,大兴 - 大城小镇,116.432907,39.815806,3,大兴,62.0,55.555555555555564
1053,大兴 - 大城小镇风车印象,116.435503,39.811033,2,大兴,86.0,58.13953488372093
1054,大兴 - 大道尚庭公寓,116.51953,39.777683,1,大兴,100.0,50.0
1055,大兴 - 大雄城市花园一幅画卷,116.493043,39.801817,14,大兴,129.0,52.152939652939665
1056,大兴 - 大雄城市花园春华屋,116.494376,39.801341,9,大兴,110.11111111111111,60.96998767746191
1057,大兴 - 大雄城市花园秋盛居,116.49628899999999,39.800373,1,大兴,98.0,61.224489795918366
1058,大兴 - 大雄郁金香舍,116.50158400000001,39.792547,28,大兴,106.89285714285714,65.53054695525502
1059,大兴 - 天堂河,116.324997,39.671329,1,大兴,60.0,46.666666666666664
1060,大兴 - 天宝家园,116.48924299999999,39.790548,10,大兴,67.8,62.230490018148814
1061,大兴 - 天宫院小区,116.32273500000001,39.679925,2,大兴,65.0,43.07692307692308
1062,大兴 - 好景国际,116.500299,39.772537,6,大兴,45.333333333333336,58.77616747181964
1063,大兴 - 宏大南园,116.33198,39.79510300000001,3,大兴,89.0,56.17977528089887
1064,大兴 - 宏盛家园,116.33953100000001,39.795952,3,大兴,105.0,46.666666666666664
1065,大兴 - 宏盛家园东区,116.336773,39.795272,4,大兴,90.0,66.66666666666667
1066,大兴 - 宏盛家园西区,116.33353600000001,39.795363,2,大兴,98.0,59.183673469387756
1067,大兴 - 宣颐家园,116.452499,39.811552,23,大兴,102.1304347826087,63.0582932314875
1068,大兴 - 富力丹麦小镇,116.306657,39.623532,5,大兴,188.8,28.39864007993946
1069,大兴 - 富力盛悦居,116.453645,39.805285,54,大兴,173.62962962962962,85.67029879431904
1070,大兴 - 富力童话时光,116.310115,39.632063,1,大兴,101.0,34.65346534653465
1071,大兴 - 富源里,116.476472,39.800896,11,大兴,63.45454545454545,68.18181818181819
1072,大兴 - 巧克力城,116.44131499999999,39.815853000000004,3,大兴,180.0,50.0
1073,大兴 - 幻星家园,116.45734099999999,39.810829,2,大兴,112.0,43.75
1074,大兴 - 庑殿家苑,116.43301100000001,39.820018,17,大兴,82.23529411764706,57.308871782185825
1075,大兴 - 康庄路9号院,116.336506,39.76056,1,大兴,115.0,47.82608695652174
1076,大兴 - 康庄路住宅区,116.33974599999999,39.758957,5,大兴,100.0,49.1304347826087
1077,大兴 - 康泰园,116.309977,39.757403000000004,2,大兴,89.5,47.47191011235955
1078,大兴 - 康盛园,116.315008,39.761684,12,大兴,69.41666666666667,53.392094017094
1079,大兴 - 康顺园,116.33964399999999,39.760625,1,大兴,115.0,47.82608695652174
1080,大兴 - 彩虹新城,116.33548700000001,39.749974,12,大兴,82.5,51.412037037037045
1081,大兴 - 御园小区,116.320086,39.631926,6,大兴,75.33333333333333,36.10561934194279
1082,大兴 - 德茂小区,116.43431499999998,39.781428999999996,7,大兴,69.14285714285714,56.47307682532732
1083,大兴 - 德贤公馆,116.42926399999999,39.820031,3,大兴,152.66666666666666,64.5483953881178
1084,大兴 - 成和园,116.43418999999999,39.816237,21,大兴,69.23809523809524,63.519562920937005
1085,大兴 - 新康家园,116.48848500000001,39.8,23,大兴,112.04347826086956,60.221185888130904
1086,大兴 - 新康家园二期,116.48854299999999,39.80031500000001,1,大兴,48.0,25.0
1087,大兴 - 新里西斯莱公馆,116.337833,39.764753999999996,9,大兴,79.66666666666667,73.1453033502108
1088,大兴 - 旧宫新苑北区,116.45255700000001,39.803715000000004,7,大兴,77.0,58.599539994888836
1089,大兴 - 旧宫新苑南区,116.45485500000001,39.798798,14,大兴,353.85714285714283,64.17996439567393
1090,大兴 - 旭辉御府,116.31443300000001,39.767681,2,大兴,149.0,49.39662659413997
1091,大兴 - 旭辉紫郡,116.312514,39.760704,7,大兴,59.142857142857146,87.68177929854576
1092,大兴 - 明悦湾,116.42230500000001,39.785163,2,大兴,74.0,48.79120879120879
1093,大兴 - 易居国际公寓,116.49975800000001,39.804193,6,大兴,71.33333333333333,71.9787283777466
1094,大兴 - 星岛假日,116.482855,39.801904,3,大兴,156.33333333333334,57.35750449126245
1095,大兴 - 星岛嘉园,116.47918600000001,39.799422,1,大兴,122.0,54.09836065573771
1096,大兴 - 春华屋,116.494376,39.801341,1,大兴,104.0,55.76923076923077
1097,大兴 - 月桂庄园,116.33662199999999,39.786346,1,大兴,130.0,46.15384615384615
1098,大兴 - 朗润园,116.45735800000001,39.805914,1,大兴,108.0,64.81481481481481
1099,大兴 - 林肯公园,116.49386399999999,39.807721,213,大兴,111.95774647887323,72.82284849429749
1100,大兴 - 林肯公园二期,116.49229299999999,39.805902,134,大兴,143.66417910447763,66.7732474126246
1101,大兴 - 林肯公寓,116.50811100000001,39.81045,6,大兴,136.33333333333334,66.73486786018755
1102,大兴 - 枣园东里,116.33303500000001,39.753063,11,大兴,101.45454545454545,56.783795914230694
1103,大兴 - 枣园尚城,116.327269,39.75503,8,大兴,75.625,50.358209992356336
1104,大兴 - 枫丹壹号,116.48278799999999,39.785725,14,大兴,102.85714285714286,66.19188062659876
1105,大兴 - 水晶之星,116.34016799999999,39.757805,1,大兴,61.0,57.377049180327866
1106,大兴 - 永旭嘉园,116.43630700000001,39.754962,9,大兴,91.22222222222223,41.558366227694506
1107,大兴 - 波普公社公寓,116.33138999999998,39.749733,3,大兴,115.0,67.0877192982456
1108,大兴 - 泰中花园,116.34646000000001,39.761275,5,大兴,85.6,52.36430127606597
1109,大兴 - 泰中花园一期,116.34778999999999,39.761527,4,大兴,131.25,46.10674077564063
1110,大兴 - 泰河园一里一区,116.502778,39.768186,3,大兴,93.33333333333333,32.16374269005848
1111,大兴 - 泰河园七里,116.498158,39.766287,1,大兴,113.0,48.67256637168141
1112,大兴 - 泰河园三里,116.502109,39.765133,3,大兴,95.0,34.03508771929825
1113,大兴 - 浉城百丽,116.49186100000001,39.790514,10,大兴,156.9,58.0001546141477
1114,大兴 - 海悦公馆,116.346699,39.721018,1,大兴,86.0,40.69767441860465
1115,大兴 - 海梓府,116.48393300000001,39.757664,2,大兴,95.0,56.60569105691057
1116,大兴 - 润星家园,116.443825,39.8166,6,大兴,64.83333333333333,73.0812324929972
1117,大兴 - 润枫锦尚,116.428968,39.790714,5,大兴,89.4,55.80786516853932
1118,大兴 - 清和园,116.43379499999999,39.805738,4,大兴,85.0,58.86752136752137
1119,大兴 - 清欣园,116.44106699999999,39.807124,3,大兴,80.66666666666667,54.88095238095238
1120,大兴 - 清澄名苑南区,116.328828,39.73623900000001,2,大兴,153.0,42.48366013071895
1121,大兴 - 清逸园,116.44724599999999,39.803883,31,大兴,70.58064516129032,65.28174794678341
1122,大兴 - 清逸西园,116.44271699999999,39.803236,9,大兴,80.77777777777777,61.150673400673405
1123,大兴 - 滨河东里,116.342003,39.752807000000004,4,大兴,55.25,57.6829268292683
1124,大兴 - 滨河西里,116.339405,39.749432,4,大兴,69.0,54.51631701631702
1125,大兴 - 滨河西里北区,116.338823,39.754475,3,大兴,71.66666666666667,58.36257309941521
1126,大兴 - 灵秀山庄,116.460295,39.798373,12,大兴,93.83333333333333,57.36429769502302
1127,大兴 - 燕景佳园,116.485428,39.800364,2,大兴,111.0,54.92747617074181
1128,大兴 - 狮城百丽,116.49186100000001,39.790514,1,大兴,196.0,45.40816326530612
1129,大兴 - 珠江四季悦城,116.48419399999999,39.800175,5,大兴,104.0,36.77333333333333
1130,大兴 - 珺悦国际,116.313375,39.686313,18,大兴,104.27777777777777,44.86650818364816
1131,大兴 - 瑞康家园,116.34206100000002,39.739228999999995,1,大兴,90.0,47.77777777777778
1132,大兴 - 瑞海家园,116.330969,39.788916,5,大兴,140.6,60.09539714017326
1133,大兴 - 第五铁路勘探院家属楼,116.33681000000001,39.758272999999996,1,大兴,50.0,72.0
1134,大兴 - 紫郡府,116.457604,39.804659,3,大兴,116.33333333333333,72.71721406941532
1135,大兴 - 红华小区,116.49153799999999,39.80415900000001,2,大兴,50.0,56.0
1136,大兴 - 红星北里,116.42602099999999,39.808336,12,大兴,99.41666666666667,49.72522847522848
1137,大兴 - 红星楼,116.42606599999999,39.804520000000004,6,大兴,58.0,76.84523809523809
1138,大兴 - 红木林,116.32538500000001,39.754859,2,大兴,112.0,57.142857142857146
1139,大兴 - 绿地财富中心公寓,116.333795,39.763834,4,大兴,52.0,88.46153846153847
1140,大兴 - 绿林苑,116.366119,39.795947,2,大兴,95.0,50.714285714285715
1141,大兴 - 美利国际,116.442875,39.8145,1,大兴,56.0,89.28571428571429
1142,大兴 - 美利新世界,116.445922,39.814432000000004,10,大兴,112.5,48.913043478260875
1143,大兴 - 美然绿色家园,116.45396799999999,39.801613,11,大兴,84.72727272727273,55.21078404799335
1144,大兴 - 联港·幸福湾,116.294767,39.698658,10,大兴,89.3,35.70213324926439
1145,大兴 - 育龙家园,116.448903,39.801469,2,大兴,100.0,55.0
1146,大兴 - 芳源里,116.417006,39.784458,1,大兴,95.0,52.63157894736842
1147,大兴 - 荣京丽都,116.511334,39.794439000000004,11,大兴,50.0,79.74344283167811
1148,大兴 - 莱茵河畔,116.47313999999999,39.79763300000001,1,大兴,177.0,42.3728813559322
1149,大兴 - 葛洲坝紫郡府,116.457604,39.804659,7,大兴,140.42857142857142,71.99439571150097
1150,大兴 - 西斯莱公馆,116.337833,39.764753999999996,8,大兴,88.375,78.84407293188335
1151,大兴 - 观海苑,116.49561200000001,39.765572,3,大兴,105.0,41.26315789473684
1152,大兴 - 观音寺南里,116.349627,39.724035,1,大兴,95.0,45.26315789473684
1153,大兴 - 贵园东里,116.48381299999998,39.800131,3,大兴,63.333333333333336,40.370370370370374
1154,大兴 - 贵园北里,116.480498,39.797584,11,大兴,95.0909090909091,18.527476600871093
1155,大兴 - 贵园北里乙区,116.478291,39.79954,4,大兴,96.5,32.04422869471413
1156,大兴 - 车站北里,116.33434,39.7259,5,大兴,67.2,55.1981017547732
1157,大兴 - 车站南里,116.332853,39.70964,1,大兴,41.0,109.7560975609756
1158,大兴 - 远洋天著洋房,116.523839,39.818409,1,大兴,165.0,101.81818181818181
1159,大兴 - 通泰国际公馆,116.55931000000001,39.780691,4,大兴,89.0,58.42696629213483
1160,大兴 - 那尔水晶城,116.33863999999998,39.756422,6,大兴,110.0,45.454545454545446
1161,大兴 - 郁花园一里,116.338085,39.774594,9,大兴,86.66666666666667,56.666666666666664
1162,大兴 - 郁花园三里,116.333083,39.771332,6,大兴,72.33333333333333,57.6241134751773
1163,大兴 - 郁金香舍,116.50158400000001,39.792547,12,大兴,105.41666666666667,70.04237905777545
1164,大兴 - 金地仰山,116.313309,39.765794,28,大兴,128.21428571428572,58.05453293767264
1165,大兴 - 金地格林小镇,116.495678,39.793209000000004,54,大兴,171.7037037037037,60.85797697444391
1166,大兴 - 金域东郡,116.48778999999999,39.753791,6,大兴,94.66666666666667,59.24728865905337
1167,大兴 - 金第万科朗润园,116.45735800000001,39.805914,7,大兴,108.0,69.44444444444444
1168,大兴 - 金色漫香林,116.525655,39.823994,6,大兴,115.66666666666667,50.80130948305375
1169,大兴 - 金茂悦亦庄,116.48401299999999,39.754439,2,大兴,190.0,57.89473684210526
1170,大兴 - 金融街漫香林第6区公寓,116.515293,39.822812,4,大兴,270.0,203.7037037037037
1171,大兴 - 金融街融汇,116.32287099999999,39.676828,15,大兴,58.86666666666667,56.9613882124843
1172,大兴 - 鑫苑鑫都汇,116.320423,39.689581,4,大兴,88.75,41.60573004075761
1173,大兴 - 锋创科技园,116.56773999999999,39.782134,3,大兴,65.0,53.84615384615385
1174,大兴 - 顺驰领海,116.31816,39.776157,5,大兴,105.4,52.261242380807595
1175,大兴 - 首座御园,116.366942,39.744201000000004,6,大兴,107.0,38.43085106382979
1176,大兴 - 首开保利熙悦诚郡,116.42643100000001,39.821985,17,大兴,148.8235294117647,72.83940813602374
1177,大兴 - 首开康乃馨城,116.311874,39.748442,11,大兴,90.45454545454545,48.85724448423002
1178,大兴 - 首邑上城,116.334313,39.756906,4,大兴,108.5,55.0187617260788
1179,大兴 - 首邑溪谷,116.31008200000001,39.760585,16,大兴,56.6875,77.41062718568429
1180,大兴 - 香海园,116.318164,39.775118,12,大兴,106.5,51.57283686487227
1181,大兴 - 鸿坤理想城,116.341921,39.793908,37,大兴,78.78378378378379,60.103723114723316
1182,大兴 - 鹿海园,116.500616,39.762833,17,大兴,75.94117647058823,37.45289070184353
1183,大兴 - 鹿鸣苑,116.50008000000001,39.799834000000004,4,大兴,130.75,64.39399947131906
1184,大兴 - 黄村中里,116.34034399999999,39.735446,1,大兴,80.0,45.0
1185,大兴 - 黄村西里,116.335366,39.733955,1,大兴,55.0,60.0
1186,大兴 - 龙湖时代天街,116.323746,39.686383,6,大兴,89.66666666666667,37.7859981201783
1187,密云 - 世豪公寓,116.852185,40.377613000000004,3,密云,157.0,21.231422505307858
1188,密云 - 中加博悦,116.817945,40.373509999999996,3,密云,96.33333333333333,24.57044673539519
1189,密云 - 中加锦园,116.828721,40.365996,1,密云,127.0,18.11023622047244
1190,密云 - 中铁绿港,116.838104,40.360733,2,密云,101.0,19.801980198019802
1191,密云 - 云秀花园月季园,116.850975,40.395947,2,密云,93.0,22.580645161290324
1192,密云 - 云秀花园牡丹园,116.851735,40.396436,16,密云,69.5,22.367538564721663
1193,密云 - 保利花园,116.864447,40.369219,18,密云,91.66666666666667,24.06457739791073
1194,密云 - 兴云小区,116.819686,40.36923400000001,2,密云,63.0,23.80952380952381
1195,密云 - 北京城建上河湾,116.845679,40.400786,14,密云,90.85714285714286,23.859771625729074
1196,密云 - 北源里,116.85247700000001,40.383404,2,密云,58.5,26.504967855055522
1197,密云 - 华远澜悦,116.84188200000001,40.397569,1,密云,50.0,44.0
1198,密云 - 唐庄小区,116.84223300000001,40.393206,1,密云,95.0,15.789473684210526
1199,密云 - 唐源云居,116.825226,40.383127,3,密云,100.66666666666667,18.67294926505453
1200,密云 - 学府花园,116.82312399999999,40.373391999999996,4,密云,1529.5,5.411016949152542
1201,密云 - 宾阳新北里,116.858528,40.386662,6,密云,109.5,20.714882943143817
1202,密云 - 宾阳里,116.86062199999999,40.380302,20,密云,84.25,20.973167717216658
1203,密云 - 密东广场,116.85631000000001,40.37693,2,密云,147.0,21.768707482993197
1204,密云 - 密云世纪家园,116.852594,40.379621,2,密云,78.0,21.794871794871796
1205,密云 - 密云行宫小区,116.86248,40.378840999999994,2,密云,60.0,26.25
1206,密云 - 密云鼓楼小区,116.854796,40.37401,4,密云,63.0,23.80952380952381
1207,密云 - 密西花园4期,116.839926,40.387964000000004,4,密云,93.0,16.129032258064516
1208,密云 - 康居南区,116.83767900000001,40.37912100000001,12,密云,88.91666666666667,23.98970549640555
1209,密云 - 懿品府,116.830499,40.365697,4,密云,100.0,24.04040404040404
1210,密云 - 明珠花园,116.79088,40.351628999999996,1,密云,60.0,25.0
1211,密云 - 李各庄小区,116.83360400000001,40.396495,1,密云,127.0,11.811023622047244
1212,密云 - 果园新里中区,116.83272,40.373072,10,密云,85.8,20.53342259678768
1213,密云 - 檀州家园西区,116.84111999999999,40.367642,2,密云,85.0,22.941176470588236
1214,密云 - 檀营生态城,116.87463600000001,40.391326,5,密云,95.0,16.631578947368418
1215,密云 - 永安家园,117.126273,40.541345,1,密云,90.0,20.0
1216,密云 - 沿湖南区,116.850996,40.385819,18,密云,83.77777777777777,21.880627206976925
1217,密云 - 涧桥山,116.83355900000001,40.363483,6,密云,103.66666666666667,28.457556935817802
1218,密云 - 瑞海姆公寓,116.832624,40.366231,1,密云,95.0,27.36842105263158
1219,密云 - 绿地国际花都,116.836898,40.382984,8,密云,58.25,32.713383838383834
1220,密云 - 花园小区,116.854796,40.37401,2,密云,61.5,35.215053763440864
1221,密云 - 蓝河湾,116.840499,40.359598999999996,1,密云,90.0,28.88888888888889
1222,密云 - 蔡家洼小区,116.89357199999999,40.375128000000004,2,密云,84.0,17.329545454545453
1223,密云 - 财智国际中心公寓,116.33379599999999,39.98807,4,密云,43.0,34.30232558139535
1224,密云 - 长安小区,116.840718,40.374359999999996,20,密云,141.95,221.70617671106692
1225,密云 - 鼓楼东区,116.849236,40.377787,6,密云,113.5,20.829435843453172
1226,崇文 - 天华公馆,116.42448999999999,39.885540999999996,2,崇文,32.0,134.375
1227,延庆 - 南菜园,115.98316200000001,40.448994,6,延庆,68.0,23.529411764705884
1228,延庆 - 双路小区,116.00276000000001,40.464446,7,延庆,70.0,32.857142857142854
1229,延庆 - 尚书苑小区,115.979032,40.468374,1,延庆,83.0,31.325301204819276
1230,延庆 - 川北小区,115.98168999999999,40.463797,2,延庆,60.0,41.666666666666664
1231,延庆 - 康安小区,115.968441,40.455962,1,延庆,75.0,33.333333333333336
1232,延庆 - 悦泽苑,115.979156,40.451007000000004,1,延庆,99.0,28.282828282828284
1233,延庆 - 格兰山水,115.973593,40.466592999999996,11,延庆,701.0,22.31122031122031
1234,延庆 - 温泉南区东里,115.975003,40.469415999999995,3,延庆,64.0,37.5
1235,延庆 - 石河营小区,115.99263400000001,40.463460999999995,9,延庆,79.22222222222223,32.29201285033787
1236,延庆 - 胜芳园小区,115.97588600000002,40.464007,6,延庆,87.0,27.58620689655172
1237,延庆 - 高塔小区,115.97884599999999,40.470543,1,延庆,116.0,24.137931034482758
1238,怀柔 - 世嘉光织谷,116.657306,40.348738,4,怀柔,109.5,25.064786132392626
1239,怀柔 - 丽湖馨居,116.62698300000001,40.309216,3,怀柔,136.66666666666666,25.73737373737374
1240,怀柔 - 于家园三区,116.64391200000001,40.327603,2,怀柔,63.0,29.910714285714285
1241,怀柔 - 于家园二区,116.64367,40.32952,8,怀柔,72.625,30.782778864970652
1242,怀柔 - 光织谷,116.657306,40.348738,4,怀柔,127.5,25.400641025641026
1243,怀柔 - 兴怀大街小区,116.64044299999999,40.321888,2,怀柔,94.0,18.085106382978722
1244,怀柔 - 南华园一区,116.63507299999999,40.311141,1,怀柔,73.0,31.506849315068493
1245,怀柔 - 南华园三区,116.63413200000001,40.30872700000001,2,怀柔,80.0,27.5
1246,怀柔 - 南华园二区,116.628781,40.309821,2,怀柔,93.0,22.580645161290324
1247,怀柔 - 南华园四区,116.630315,40.30614,1,怀柔,75.0,29.333333333333332
1248,怀柔 - 南华大街,116.626544,40.304984999999995,4,怀柔,64.5,38.762019230769226
1249,怀柔 - 宽沟9号,116.584899,40.290805999999996,1,怀柔,105.0,28.571428571428573
1250,怀柔 - 富乐北里,116.634654,40.333599,1,怀柔,96.0,23.958333333333332
1251,怀柔 - 富乐南里,116.632158,40.331496,2,怀柔,87.0,28.735632183908045
1252,怀柔 - 富乐大街,116.63776999999999,40.341761,1,怀柔,100.0,33.0
1253,怀柔 - 幸福东园,116.70886499999999,40.326617,2,怀柔,78.0,20.512820512820515
1254,怀柔 - 府东一条,116.633016,40.317316999999996,1,怀柔,63.0,34.92063492063492
1255,怀柔 - 康馨家园,116.63508300000001,40.313521,3,怀柔,123.33333333333333,28.98989898989899
1256,怀柔 - 怀柔东关二区,116.642316,40.311391,5,怀柔,77.6,28.126623376623378
1257,怀柔 - 怀柔开放路,116.644795,40.32669,1,怀柔,94.0,26.595744680851062
1258,怀柔 - 怡安园,116.646387,40.290467,7,怀柔,90.0,23.015873015873016
1259,怀柔 - 新元居,116.646,40.325089,1,怀柔,88.0,28.40909090909091
1260,怀柔 - 新兴居小区,116.631872,40.333887,2,怀柔,95.0,29.473684210526315
1261,怀柔 - 栖美园,116.676042,40.364697,1,怀柔,140.0,21.428571428571427
1262,怀柔 - 湖光小区,116.62688999999999,40.333131,2,怀柔,70.0,35.714285714285715
1263,怀柔 - 益田影人峰汇公寓,116.67563799999999,40.289460999999996,2,怀柔,155.0,10.96774193548387
1264,怀柔 - 美丽家园,116.64591999999999,40.318358,1,怀柔,53.0,37.735849056603776
1265,怀柔 - 翠竹园小区,116.63961599999999,40.330542,1,怀柔,130.0,25.384615384615383
1266,怀柔 - 融城园,116.632006,40.293728,1,怀柔,106.0,21.69811320754717
1267,怀柔 - 西园,116.626452,40.323284,2,怀柔,56.0,35.714285714285715
1268,怀柔 - 迎宾路住宅楼,116.644147,40.330902,3,怀柔,136.66666666666666,27.806194941744817
1269,怀柔 - 金台园小区,116.64261599999999,40.322601,4,怀柔,80.25,30.6581311769991
1270,怀柔 - 金善名居,116.61861100000002,40.290712,1,怀柔,76.0,22.36842105263158
1271,怀柔 - 金桥国际,116.63733400000001,40.312415,1,怀柔,121.0,90.9090909090909
1272,怀柔 - 金第梦想山,116.68918799999999,40.283514000000004,5,怀柔,88.2,29.936159346271705
1273,怀柔 - 钓鱼台花园小区,116.630276,40.326048,4,怀柔,96.0,25.0
1274,怀柔 - 雁栖开发区,116.66633700000001,40.36327,19,怀柔,74.10526315789474,30.632984159427696
1275,怀柔 - 雁舞园,116.672521,40.365142999999996,1,怀柔,105.0,22.857142857142858
1276,怀柔 - 雁鸣园,116.66771000000001,40.361663,5,怀柔,91.4,24.93241695303551
1277,怀柔 - 青春苑,116.62726,40.3197,3,怀柔,78.0,32.05128205128205
1278,怀柔 - 青春苑西区,116.62726,40.3197,2,怀柔,95.0,28.42105263157895
1279,怀柔 - 青春路,116.630587,40.324017,1,怀柔,22.0,50.0
1280,怀柔 - 青春路一院,116.63201799999999,40.313804,6,怀柔,61.833333333333336,38.64815012514382
1281,怀柔 - 青春路九院,116.627881,40.322741,2,怀柔,63.0,25.396825396825395
1282,怀柔 - 青春路六院,116.62876000000001,40.320505,7,怀柔,83.57142857142857,35.89869682812885
1283,怀柔 - 顶秀美泉小镇,116.672067,40.370369000000004,4,怀柔,94.0,31.228870858688303
1284,怀柔 - 龙山御景,116.627706,40.313457,1,怀柔,133.0,33.83458646616541
1285,怀柔 - 龙祥小区,116.628947,40.312127000000004,2,怀柔,30.0,89.975
1286,房山 - 一万米家园,116.146795,39.738774,11,房山,91.0909090909091,28.24349563479998
1287,房山 - 万宁小区,115.98171200000002,39.709067,14,房山,64.71428571428571,23.1360707409329
1288,房山 - 万宁新区,115.983026,39.711801,1,房山,82.0,26.21951219512195
1289,房山 - 万科幸福汇,116.06608100000001,39.654647,20,房山,87.65,28.185628899781715
1290,房山 - 万科新里程,116.18838500000001,39.733762,3,房山,123.0,25.203252032520325
1291,房山 - 世茂维拉,116.17758700000002,39.743443,38,房山,112.94736842105263,37.139295599203436
1292,房山 - 东关家园,116.14958,39.731418,3,房山,83.0,25.301204819277107
1293,房山 - 东风南里,115.96249399999999,39.754044,11,房山,45.54545454545455,22.067606884622265
1294,房山 - 中冶蓝城,116.01132,39.70740900000001,5,房山,98.2,22.23285486443381
1295,房山 - 中国铁建原香小镇,115.971226,39.715284999999994,32,房山,82.0625,37.865148172952125
1296,房山 - 中国铁建原香漫谷,116.01054099999999,39.713710999999996,5,房山,90.8,23.56043956043956
1297,房山 - 中国铁建国际花园,116.190992,39.772009000000004,20,房山,87.95,36.85932701475477
1298,房山 - 中粮万科长阳半岛,116.206845,39.762155,61,房山,100.29508196721312,39.5420052126342
1299,房山 - 九洲兴达B区,115.98337,39.691752,2,房山,89.5,23.463088939279416
1300,房山 - 九洲兴达家园,115.98408,39.691332,7,房山,101.28571428571429,23.350987918203504
1301,房山 - 五和万科长阳天地,116.188348,39.769690000000004,12,房山,64.75,43.05486542443064
1302,房山 - 五矿铭品,116.191927,39.721160999999995,10,房山,66.8,30.31135531135531
1303,房山 - 京南嘉园,116.072383,39.645885,19,房山,96.26315789473684,20.771149341213782
1304,房山 - 京投万科新里程,116.18838500000001,39.733762,4,房山,128.5,39.0081594435527
1305,房山 - 仓房小区,115.98551100000002,39.703756,3,房山,61.333333333333336,24.864864864864867
1306,房山 - 伟业嘉园,116.159557,39.732892,7,房山,89.28571428571429,27.987003116962082
1307,房山 - 伟业嘉园东里,116.162653,39.73383,3,房山,86.0,30.232558139534884
1308,房山 - 伟业嘉园西里,116.15939499999999,39.732286,18,房山,111.27777777777777,27.357390590078083
1309,房山 - 体育场路26号院,116.14704499999999,39.740712,1,房山,57.0,35.08771929824562
1310,房山 - 体育场路6号院,116.14815,39.740737,1,房山,135.0,22.22222222222222
1311,房山 - 佳世苑小区,116.12368799999999,39.72121,38,房山,93.55263157894737,31.49794772126376
1312,房山 - 供电局家属楼,116.13748700000001,39.730432,1,房山,70.0,32.857142857142854
1313,房山 - 修造厂六区,116.151436,39.739419,2,房山,55.0,36.36363636363637
1314,房山 - 修造厂花园巷二区,116.15345,39.741101,3,房山,67.33333333333333,33.90453834115806
1315,房山 - 兴房东里,115.98960600000001,39.69383,5,房山,71.8,19.185909980430527
1316,房山 - 兴房大街12号院,115.992225,39.695852,1,房山,65.0,27.692307692307693
1317,房山 - 兴房大街18号院,115.99083,39.6964,7,房山,62.857142857142854,24.642857142857142
1318,房山 - 兴房苑,115.99416399999998,39.697348999999996,5,房山,98.4,23.375510204081632
1319,房山 - 农林路小区,115.98834099999999,39.691297999999996,15,房山,52.13333333333333,26.5239289446186
1320,房山 - 凤凰亭北里,115.94701699999999,39.739973,1,房山,65.0,15.384615384615385
1321,房山 - 凤凰亭南里,115.94426599999998,39.737411,1,房山,59.0,15.254237288135593
1322,房山 - 加州水郡,116.172055,39.766895,25,房山,75.56,39.2115731040735
1323,房山 - 加州水郡Q酷,116.16416299999999,39.767187,2,房山,35.5,46.507936507936506
1324,房山 - 加州水郡一期,116.17262,39.767309999999995,8,房山,115.0,30.897435897435898
1325,房山 - 加州水郡三期,116.16553,39.768034,10,房山,98.6,34.33908045977011
1326,房山 - 加州水郡东区公寓,116.172055,39.766895,16,房山,161.3125,30.840638681096074
1327,房山 - 加州水郡二期,116.16416299999999,39.767187,4,房山,90.0,36.666666666666664
1328,房山 - 加州水郡四期,116.159924,39.765283000000004,7,房山,79.85714285714286,39.27575936184719
1329,房山 - 加州水郡西区,116.16249199999999,39.767917,138,房山,84.98550724637681,36.36718052759235
1330,房山 - 化四家属楼,116.021505,39.704924,4,房山,68.25,20.28225806451613
1331,房山 - 北京城建琨廷,116.066158,39.672788,46,房山,93.91304347826087,24.240335760749076
1332,房山 - 北关东路,116.1433,39.735966999999995,5,房山,50.0,51.2
1333,房山 - 北关东里,115.984167,39.707390999999994,3,房山,60.0,29.984051036682615
1334,房山 - 北潞冠家园,116.12950500000001,39.742197999999995,21,房山,102.95238095238095,33.00680593340278
1335,房山 - 北潞华家园,116.13254099999999,39.739836,9,房山,137.33333333333334,30.8652830629107
1336,房山 - 北潞园,116.12775500000001,39.739732000000004,23,房山,101.26086956521739,29.418963747417415
1337,房山 - 北潞春,116.127113,39.738274,12,房山,80.91666666666667,33.674429167182794
1338,房山 - 北潞春绿色生态小区,116.12763999999999,39.73804000000001,10,房山,94.6,31.498189144381485
1339,房山 - 北潞芳,116.12588899999999,39.739955,23,房山,103.65217391304348,28.872067524299954
1340,房山 - 北潞馨家园,116.122375,39.73774,8,房山,87.625,34.77563048064837
1341,房山 - 千禧家园,116.070996,39.729082,11,房山,108.18181818181819,25.173434903926786
1342,房山 - 华典家园,116.14451899999999,39.740563,1,房山,115.0,27.82608695652174
1343,房山 - 华城家园,116.050292,39.627823,1,房山,94.0,21.27659574468085
1344,房山 - 南沿里,115.991487,39.69556,1,房山,70.0,20.0
1345,房山 - 原香小镇,116.16433,39.755589,16,房山,83.5625,38.12861725361725
1346,房山 - 古桥镜水,116.03055400000001,39.611682,2,房山,85.0,17.647058823529413
1347,房山 - 吴店西里,116.150653,39.75167800000001,9,房山,102.33333333333333,27.58122660351064
1348,房山 - 嘉瑞通小区,116.141127,39.72433,12,房山,94.91666666666667,32.92084377610693
1349,房山 - 四合巷小区,116.15113999999998,39.738628999999996,10,房山,57.4,36.67784273653176
1350,房山 - 城关北里,115.98708,39.705420000000004,13,房山,55.76923076923077,24.715464743145034
1351,房山 - 城关南里,115.98542900000001,39.693265000000004,15,房山,62.06666666666667,25.248634406529145
1352,房山 - 大宁山庄,116.21465900000001,39.811686,12,房山,129.66666666666666,40.467101505907145
1353,房山 - 天恒乐活城,116.079297,39.714544000000004,32,房山,82.5,34.093368366623864
1354,房山 - 天恒乐活城D5,116.079297,39.714544000000004,1,房山,87.0,34.48275862068966
1355,房山 - 天泰新景,116.222753,39.775381,1,房山,93.0,35.483870967741936
1356,房山 - 天泰新景家园,116.222753,39.775381,4,房山,83.0,36.46390374331551
1357,房山 - 天资璟庭,116.16407,39.762861,4,房山,144.0,45.138888888888886
1358,房山 - 天骄俊园,116.17633500000001,39.749959999999994,9,房山,89.77777777777777,33.915938410320436
1359,房山 - 太平庄东里,116.12275600000001,39.733159,15,房山,100.13333333333334,23.54653567808123
1360,房山 - 太平庄西里,116.12004499999999,39.734265,1,房山,100.0,26.0
